[
  {
    "aun": "124150002",
    "schl": "7691",
    "name": "21st Century Cyber CS",
    "lat": 39.987095,
    "lon": -75.577051,
    "address": "1245 Wrights Lane, West Chester, 19380",
    "math": 22.1,
    "math_state": 41.7,
    "ela": 44.0,
    "ela_state": 49.9,
    "attendance": 83.2,
    "attendance_state": 79.6
  },
  {
    "aun": "103020407",
    "schl": "5273",
    "name": "A W Beattie Career Center",
    "lat": 40.579948,
    "lon": -80.005998,
    "address": "9600 Babcock Boulevard, Allison Park, 15101",
    "math": null,
    "math_state": 41.7,
    "ela": null,
    "ela_state": 49.9,
    "attendance": 64.6,
    "attendance_state": 79.6
  },
  {
    "aun": "119350303",
    "schl": "2402",
    "name": "Waverly Sch",
    "lat": 41.4943012631938,
    "lon": -75.6986359089192,
    "address": "103 Waverly Rd, Waverly, 18471",
    "math": 88.1,
    "math_state": 41.7,
    "ela": 78.9,
    "ela_state": 49.9,
    "attendance": 95.2,
    "attendance_state": 79.6
  },
  {
    "aun": "119350303",
    "schl": "2407",
    "name": "Newton-Ransom Sch",
    "lat": 41.4943012631938,
    "lon": -75.6986359089192,
    "address": "1549 Newton Ransom Boulevard, Clarks Summit, 18411",
    "math": 85.9,
    "math_state": 41.7,
    "ela": 61.5,
    "ela_state": 49.9,
    "attendance": 95.0,
    "attendance_state": 79.6
  },
  {
    "aun": "119350303",
    "schl": "5091",
    "name": "Abington Heights HS",
    "lat": 41.4943012631938,
    "lon": -75.6986359089192,
    "address": "222 Noble Road, Clarks Summit, 18411",
    "math": 67.5,
    "math_state": 41.7,
    "ela": 87.5,
    "ela_state": 49.9,
    "attendance": 96.2,
    "attendance_state": 79.6
  },
  {
    "aun": "119350303",
    "schl": "6398",
    "name": "South Abington Sch",
    "lat": 41.4943012631938,
    "lon": -75.6986359089192,
    "address": "640 Northern Boulevard, Chinchilla, 18410",
    "math": 71.9,
    "math_state": 41.7,
    "ela": 57.9,
    "ela_state": 49.9,
    "attendance": 91.2,
    "attendance_state": 79.6
  },
  {
    "aun": "119350303",
    "schl": "6839",
    "name": "Abington Heights MS",
    "lat": 41.4943012631938,
    "lon": -75.6986359089192,
    "address": "1555 Newton Ransom Blvd, Clarks Summit, 18411",
    "math": 51.1,
    "math_state": 41.7,
    "ela": 60.8,
    "ela_state": 49.9,
    "attendance": 87.6,
    "attendance_state": 79.6
  },
  {
    "aun": "119350303",
    "schl": "7570",
    "name": "Clarks Summit El Sch",
    "lat": 41.4943012631938,
    "lon": -75.6986359089192,
    "address": "401 W Grove St, Clarks Summit, 18411",
    "math": 73.9,
    "math_state": 41.7,
    "ela": 56.4,
    "ela_state": 49.9,
    "attendance": 93.1,
    "attendance_state": 79.6
  },
  {
    "aun": "123460302",
    "schl": "3226",
    "name": "Rydal El Sch",
    "lat": 40.112733,
    "lon": -75.128276,
    "address": "1160 Huntingdon Pike, Huntingdon Valley, 19006",
    "math": 72.5,
    "math_state": 41.7,
    "ela": 78.7,
    "ela_state": 49.9,
    "attendance": 91.8,
    "attendance_state": 79.6
  },
  {
    "aun": "123460302",
    "schl": "3229",
    "name": "Highland Sch",
    "lat": 40.112733,
    "lon": -75.128276,
    "address": "1301 Edge Hill Rd, Abington, 19001",
    "math": 59.6,
    "math_state": 41.7,
    "ela": 66.2,
    "ela_state": 49.9,
    "attendance": 90.6,
    "attendance_state": 79.6
  },
  {
    "aun": "123460302",
    "schl": "3232",
    "name": "Overlook Sch",
    "lat": 40.112733,
    "lon": -75.128276,
    "address": "1750 Edge Hill Rd, Abington, 19001",
    "math": 65.0,
    "math_state": 41.7,
    "ela": 74.0,
    "ela_state": 49.9,
    "attendance": 91.8,
    "attendance_state": 79.6
  },
  {
    "aun": "123460302",
    "schl": "3234",
    "name": "Roslyn Sch",
    "lat": 40.112733,
    "lon": -75.128276,
    "address": "2565 Susquehanna Rd, Roslyn, 19001",
    "math": 59.4,
    "math_state": 41.7,
    "ela": 64.0,
    "ela_state": 49.9,
    "attendance": 91.5,
    "attendance_state": 79.6
  },
  {
    "aun": "123460302",
    "schl": "3241",
    "name": "Abington SHS",
    "lat": 40.112733,
    "lon": -75.128276,
    "address": "900 Highland Avenue, Abington, 19001",
    "math": 55.3,
    "math_state": 41.7,
    "ela": 70.8,
    "ela_state": 49.9,
    "attendance": 73.0,
    "attendance_state": 79.6
  },
  {
    "aun": "123460302",
    "schl": "3242",
    "name": "Abington MS",
    "lat": 40.112733,
    "lon": -75.128276,
    "address": "2056 Susquehanna St, Abington, 19001",
    "math": 49.6,
    "math_state": 41.7,
    "ela": 52.0,
    "ela_state": 49.9,
    "attendance": 80.5,
    "attendance_state": 79.6
  },
  {
    "aun": "123460302",
    "schl": "4910",
    "name": "Willow Hill Sch",
    "lat": 40.112733,
    "lon": -75.128276,
    "address": "1700 Coolidge Avenue, Willow Grove, 19090",
    "math": 65.4,
    "math_state": 41.7,
    "ela": 65.9,
    "ela_state": 49.9,
    "attendance": 91.8,
    "attendance_state": 79.6
  },
  {
    "aun": "123460302",
    "schl": "5075",
    "name": "McKinley Sch",
    "lat": 40.112733,
    "lon": -75.128276,
    "address": "370 Cedar Rd, Elkins Park, 19027",
    "math": 55.9,
    "math_state": 41.7,
    "ela": 58.9,
    "ela_state": 49.9,
    "attendance": 91.9,
    "attendance_state": 79.6
  },
  {
    "aun": "123460302",
    "schl": "7707",
    "name": "Copper Beech Sch",
    "lat": 40.112733,
    "lon": -75.128276,
    "address": "825 N Easton Road, Glenside, 19038",
    "math": 59.2,
    "math_state": 41.7,
    "ela": 63.8,
    "ela_state": 49.9,
    "attendance": 89.2,
    "attendance_state": 79.6
  },
  {
    "aun": "125230001",
    "schl": "7824",
    "name": "Achievement House CS",
    "lat": 40.058055,
    "lon": -75.645812,
    "address": "102 Pickering Way, Exton, 19341",
    "math": 6.3,
    "math_state": 41.7,
    "ela": 29.3,
    "ela_state": 49.9,
    "attendance": 65.8,
    "attendance_state": 79.6
  },
  {
    "aun": "126510015",
    "schl": "7825",
    "name": "Ad Prima CS",
    "lat": 40.002387,
    "lon": -75.233556,
    "address": "1922 N. 63rd Street, Philadelphia, 19151",
    "math": 20.4,
    "math_state": 41.7,
    "ela": 37.4,
    "ela_state": 49.9,
    "attendance": 81.6,
    "attendance_state": 79.6
  },
  {
    "aun": "112015106",
    "schl": "8471",
    "name": "Adams County Technical Institute",
    "lat": 39.8515,
    "lon": -77.21758,
    "address": "1126 Old Harrisburg RD, Gettysburg, 17325",
    "math": null,
    "math_state": 41.7,
    "ela": null,
    "ela_state": 49.9,
    "attendance": 72.9,
    "attendance_state": 79.6
  },
  {
    "aun": "108110307",
    "schl": "6661",
    "name": "Admiral Peary AVTS",
    "lat": 40.48807,
    "lon": -78.744366,
    "address": "948 Ben Franklin Highway, Ebensburg, 15931",
    "math": null,
    "math_state": 41.7,
    "ela": null,
    "ela_state": 49.9,
    "attendance": 67.4,
    "attendance_state": 79.6
  },
  {
    "aun": "126510020",
    "schl": "7858",
    "name": "Agora Cyber CS",
    "lat": 40.093884,
    "lon": -75.416835,
    "address": "1018 West 8th Avenue, King of Prussia, 19406",
    "math": 6.4,
    "math_state": 41.7,
    "ela": 20.5,
    "ela_state": 49.9,
    "attendance": 62.8,
    "attendance_state": 79.6
  },
  {
    "aun": "101260303",
    "schl": "2129",
    "name": "George J Plava El Sch",
    "lat": 39.829530671441,
    "lon": -79.771353999046,
    "address": "120 Puritan Rd, Mc Clellandtown, 15458",
    "math": 27.2,
    "math_state": 41.7,
    "ela": 38.1,
    "ela_state": 49.9,
    "attendance": 74.3,
    "attendance_state": 79.6
  },
  {
    "aun": "101260303",
    "schl": "4921",
    "name": "Smithfield El Sch",
    "lat": 39.829530671441,
    "lon": -79.771353999046,
    "address": "23 Liberty St, Smithfield, 15479",
    "math": 54.3,
    "math_state": 41.7,
    "ela": 44.8,
    "ela_state": 49.9,
    "attendance": 80.8,
    "attendance_state": 79.6
  },
  {
    "aun": "101260303",
    "schl": "4922",
    "name": "Friendship Hill El Sch",
    "lat": 39.829530671441,
    "lon": -79.771353999046,
    "address": "218 New Geneva Rd, Point Marion, 15474",
    "math": 55.3,
    "math_state": 41.7,
    "ela": 50.0,
    "ela_state": 49.9,
    "attendance": 67.3,
    "attendance_state": 79.6
  },
  {
    "aun": "101260303",
    "schl": "6001",
    "name": "Albert Gallatin Area SHS",
    "lat": 39.829530671441,
    "lon": -79.771353999046,
    "address": "1119 Township Dr, Uniontown, 15401",
    "math": 28.7,
    "math_state": 41.7,
    "ela": 46.4,
    "ela_state": 49.9,
    "attendance": 68.9,
    "attendance_state": 79.6
  },
  {
    "aun": "101260303",
    "schl": "6002",
    "name": "Masontown El Sch",
    "lat": 39.829530671441,
    "lon": -79.771353999046,
    "address": "201 Spring St, Masontown, 15461",
    "math": 31.8,
    "math_state": 41.7,
    "ela": 37.3,
    "ela_state": 49.9,
    "attendance": 64.1,
    "attendance_state": 79.6
  },
  {
    "aun": "101260303",
    "schl": "7607",
    "name": "Albert Gallatin North MS",
    "lat": 39.829530671441,
    "lon": -79.771353999046,
    "address": "113 College Avenue, McClellandtown, 15458",
    "math": 33.3,
    "math_state": 41.7,
    "ela": 33.9,
    "ela_state": 49.9,
    "attendance": 67.3,
    "attendance_state": 79.6
  },
  {
    "aun": "101260303",
    "schl": "7608",
    "name": "Albert Gallatin South MS",
    "lat": 39.829530671441,
    "lon": -79.771353999046,
    "address": "224 New Geneva Road, Point Marion, 15474",
    "math": 40.0,
    "math_state": 41.7,
    "ela": 48.8,
    "ela_state": 49.9,
    "attendance": 67.4,
    "attendance_state": 79.6
  },
  {
    "aun": "101260303",
    "schl": "8364",
    "name": "A L Wilson El Sch",
    "lat": 39.829530671441,
    "lon": -79.771353999046,
    "address": "100 Al Wilson Drive, Fairchance, 15436",
    "math": 26.9,
    "math_state": 41.7,
    "ela": 35.3,
    "ela_state": 49.9,
    "attendance": 77.4,
    "attendance_state": 79.6
  },
  {
    "aun": "127040503",
    "schl": "8085",
    "name": "Aliquippa El Sch",
    "lat": 40.609116,
    "lon": -80.256787,
    "address": "800 Twenty-First Street, Aliquippa, 15001",
    "math": 9.3,
    "math_state": 41.7,
    "ela": 13.2,
    "ela_state": 49.9,
    "attendance": 72.8,
    "attendance_state": 79.6
  },
  {
    "aun": "127040503",
    "schl": "8086",
    "name": "Aliquippa JSHS",
    "lat": 40.609116,
    "lon": -80.256787,
    "address": "100 Harding Avenue, Aliquippa, 15001",
    "math": 6.1,
    "math_state": 41.7,
    "ela": 13.7,
    "ela_state": 49.9,
    "attendance": 65.2,
    "attendance_state": 79.6
  },
  {
    "aun": "103020603",
    "schl": "29",
    "name": "Springdale JSHS",
    "lat": 40.543447,
    "lon": -79.816194,
    "address": "501 Butler Rd, Springdale, 15144",
    "math": 28.4,
    "math_state": 41.7,
    "ela": 52.7,
    "ela_state": 49.9,
    "attendance": 66.7,
    "attendance_state": 79.6
  },
  {
    "aun": "103020603",
    "schl": "5296",
    "name": "Acmetonia El Sch",
    "lat": 40.543447,
    "lon": -79.816194,
    "address": "300 Pearl Street, Cheswick, 15024",
    "math": 41.8,
    "math_state": 41.7,
    "ela": 56.3,
    "ela_state": 49.9,
    "attendance": 78.1,
    "attendance_state": 79.6
  },
  {
    "aun": "106160303",
    "schl": "4664",
    "name": "Allegheny-Clarion Valley HS",
    "lat": 41.1619,
    "lon": -79.6513,
    "address": "762 Route 58, Foxburg, 16036",
    "math": 39.2,
    "math_state": 41.7,
    "ela": 65.6,
    "ela_state": 49.9,
    "attendance": 73.3,
    "attendance_state": 79.6
  },
  {
    "aun": "106160303",
    "schl": "7467",
    "name": "Allegheny-Clarion Valley Elem",
    "lat": 41.1619,
    "lon": -79.6513,
    "address": "776 Route 58, Foxburg, 16036",
    "math": 52.5,
    "math_state": 41.7,
    "ela": 47.5,
    "ela_state": 49.9,
    "attendance": 84.1,
    "attendance_state": 79.6
  },
  {
    "aun": "121390302",
    "schl": "2768",
    "name": "Hiram W Dodd El Sch",
    "lat": 40.60283,
    "lon": -75.466513,
    "address": "1944 S Church St, Allentown, 18103",
    "math": 31.8,
    "math_state": 41.7,
    "ela": 26.2,
    "ela_state": 49.9,
    "attendance": 78.9,
    "attendance_state": 79.6
  },
  {
    "aun": "121390302",
    "schl": "2774",
    "name": "Jefferson El Sch",
    "lat": 40.60283,
    "lon": -75.466513,
    "address": "750 Saint John St, Allentown, 18103",
    "math": 16.3,
    "math_state": 41.7,
    "ela": 18.2,
    "ela_state": 49.9,
    "attendance": 63.2,
    "attendance_state": 79.6
  },
  {
    "aun": "121390302",
    "schl": "2775",
    "name": "Lehigh Parkway El Sch",
    "lat": 40.60283,
    "lon": -75.466513,
    "address": "1708 Coronado St, Allentown, 18103",
    "math": 55.1,
    "math_state": 41.7,
    "ela": 48.6,
    "ela_state": 49.9,
    "attendance": 86.5,
    "attendance_state": 79.6
  },
  {
    "aun": "121390302",
    "schl": "2779",
    "name": "Mosser El Sch",
    "lat": 40.60283,
    "lon": -75.466513,
    "address": "129 S Dauphin St, Allentown, 18109",
    "math": 23.1,
    "math_state": 41.7,
    "ela": 16.9,
    "ela_state": 49.9,
    "attendance": 64.9,
    "attendance_state": 79.6
  },
  {
    "aun": "121390302",
    "schl": "2780",
    "name": "Muhlenberg El Sch",
    "lat": 40.60283,
    "lon": -75.466513,
    "address": "740 N 21st St, Allentown, 18104",
    "math": 23.3,
    "math_state": 41.7,
    "ela": 24.4,
    "ela_state": 49.9,
    "attendance": 73.9,
    "attendance_state": 79.6
  },
  {
    "aun": "121390302",
    "schl": "2781",
    "name": "Ritter El Sch",
    "lat": 40.60283,
    "lon": -75.466513,
    "address": "790 N Plymouth Street, Allentown, 18109",
    "math": 16.9,
    "math_state": 41.7,
    "ela": 18.1,
    "ela_state": 49.9,
    "attendance": 76.6,
    "attendance_state": 79.6
  },
  {
    "aun": "121390302",
    "schl": "2782",
    "name": "Roosevelt El Sch",
    "lat": 40.60283,
    "lon": -75.466513,
    "address": "210 W Susquehanna St, Allentown, 18103",
    "math": 20.4,
    "math_state": 41.7,
    "ela": 18.2,
    "ela_state": 49.9,
    "attendance": 69.5,
    "attendance_state": 79.6
  },
  {
    "aun": "121390302",
    "schl": "2785",
    "name": "Union Terrace El Sch",
    "lat": 40.60283,
    "lon": -75.466513,
    "address": "1939 W Union St, Allentown, 18104",
    "math": 26.4,
    "math_state": 41.7,
    "ela": 21.6,
    "ela_state": 49.9,
    "attendance": 70.7,
    "attendance_state": 79.6
  },
  {
    "aun": "121390302",
    "schl": "2786",
    "name": "Washington El Sch",
    "lat": 40.60283,
    "lon": -75.466513,
    "address": "837 N 9th St, Allentown, 18102",
    "math": 19.3,
    "math_state": 41.7,
    "ela": 13.9,
    "ela_state": 49.9,
    "attendance": 65.8,
    "attendance_state": 79.6
  },
  {
    "aun": "121390302",
    "schl": "2790",
    "name": "Central El Sch",
    "lat": 40.60283,
    "lon": -75.466513,
    "address": "829 W Turner St, Allentown, 18102",
    "math": 18.5,
    "math_state": 41.7,
    "ela": 11.8,
    "ela_state": 49.9,
    "attendance": 59.3,
    "attendance_state": 79.6
  },
  {
    "aun": "121390302",
    "schl": "2791",
    "name": "Harrison-Morton MS",
    "lat": 40.60283,
    "lon": -75.466513,
    "address": "137 N 2nd St, Allentown, 18101",
    "math": 7.6,
    "math_state": 41.7,
    "ela": 14.8,
    "ela_state": 49.9,
    "attendance": 60.3,
    "attendance_state": 79.6
  },
  {
    "aun": "121390302",
    "schl": "2792",
    "name": "Francis D Raub MS",
    "lat": 40.60283,
    "lon": -75.466513,
    "address": "102 S Saint Cloud St, Allentown, 18104",
    "math": 6.2,
    "math_state": 41.7,
    "ela": 13.2,
    "ela_state": 49.9,
    "attendance": 59.9,
    "attendance_state": 79.6
  },
  {
    "aun": "121390302",
    "schl": "2793",
    "name": "South Mountain MS",
    "lat": 40.60283,
    "lon": -75.466513,
    "address": "709 W Emaus Ave, Allentown, 18103",
    "math": 10.8,
    "math_state": 41.7,
    "ela": 18.5,
    "ela_state": 49.9,
    "attendance": 68.6,
    "attendance_state": 79.6
  },
  {
    "aun": "121390302",
    "schl": "2794",
    "name": "William Allen HS",
    "lat": 40.60283,
    "lon": -75.466513,
    "address": "106 N 17th St, Allentown, 18104",
    "math": 11.0,
    "math_state": 41.7,
    "ela": 25.5,
    "ela_state": 49.9,
    "attendance": 43.1,
    "attendance_state": 79.6
  },
  {
    "aun": "121390302",
    "schl": "2795",
    "name": "Louis E Dieruff HS",
    "lat": 40.60283,
    "lon": -75.466513,
    "address": "815 N Irving St, Allentown, 18109",
    "math": 12.7,
    "math_state": 41.7,
    "ela": 27.4,
    "ela_state": 49.9,
    "attendance": 50.2,
    "attendance_state": 79.6
  },
  {
    "aun": "121390302",
    "schl": "4929",
    "name": "Trexler MS",
    "lat": 40.60283,
    "lon": -75.466513,
    "address": "851 N 15th St, Allentown, 18102",
    "math": 3.7,
    "math_state": 41.7,
    "ela": 14.1,
    "ela_state": 49.9,
    "attendance": 62.9,
    "attendance_state": 79.6
  },
  {
    "aun": "121390302",
    "schl": "6448",
    "name": "Sheridan El Sch",
    "lat": 40.60283,
    "lon": -75.466513,
    "address": "521 N 2nd St, Allentown, 18102",
    "math": 18.2,
    "math_state": 41.7,
    "ela": 12.7,
    "ela_state": 49.9,
    "attendance": 64.8,
    "attendance_state": 79.6
  },
  {
    "aun": "121390302",
    "schl": "8140",
    "name": "Luis A. Ramos El Sch",
    "lat": 40.60283,
    "lon": -75.466513,
    "address": "1430 West Allen St, Allentown, 18102",
    "math": 24.0,
    "math_state": 41.7,
    "ela": 18.2,
    "ela_state": 49.9,
    "attendance": 68.8,
    "attendance_state": 79.6
  },
  {
    "aun": "121390302",
    "schl": "8412",
    "name": "Bridgeview Academy of Health Science Innovation and Tech",
    "lat": 40.60283,
    "lon": -75.466513,
    "address": "265 Lehigh St, Allentown, 18102",
    "math": 5.3,
    "math_state": 41.7,
    "ela": 31.2,
    "ela_state": 49.9,
    "attendance": 70.4,
    "attendance_state": 79.6
  },
  {
    "aun": "121390302",
    "schl": "8413",
    "name": "Jackson Early Childhood Center",
    "lat": 40.60283,
    "lon": -75.466513,
    "address": "517 N 15th St, Allentown, 18102",
    "math": null,
    "math_state": 41.7,
    "ela": null,
    "ela_state": 49.9,
    "attendance": 55.7,
    "attendance_state": 79.6
  },
  {
    "aun": "121390302",
    "schl": "8484",
    "name": "Brigadier General Anna Mae Hays El Sch",
    "lat": 40.60283,
    "lon": -75.466513,
    "address": "1227 W Gordon St, Allentown, 18102",
    "math": 18.3,
    "math_state": 41.7,
    "ela": 12.6,
    "ela_state": 49.9,
    "attendance": 66.6,
    "attendance_state": 79.6
  },
  {
    "aun": "121390302",
    "schl": "8528",
    "name": "Sonia Sotomayor Dual Lang Immersion Academy",
    "lat": 40.60283,
    "lon": -75.466513,
    "address": "2020 E Pennsylvania St, Allentown, 18109",
    "math": null,
    "math_state": 41.7,
    "ela": null,
    "ela_state": 49.9,
    "attendance": null,
    "attendance_state": 79.6
  },
  {
    "aun": "121390302",
    "schl": "8529",
    "name": "Ruby Bridge Childhood Center",
    "lat": 40.60283,
    "lon": -75.466513,
    "address": "1394 Walnut St, Allentown, 18102",
    "math": null,
    "math_state": 41.7,
    "ela": null,
    "ela_state": 49.9,
    "attendance": null,
    "attendance_state": 79.6
  },
  {
    "aun": "126512990",
    "schl": "7543",
    "name": "Alliance for Progress CS",
    "lat": 39.97987,
    "lon": -75.1654,
    "address": "1821-39 Cecil B Moore Avenue, Philadelphia, 19121",
    "math": 4.7,
    "math_state": 41.7,
    "ela": 9.5,
    "ela_state": 49.9,
    "attendance": 52.4,
    "attendance_state": 79.6
  },
  {
    "aun": "108070502",
    "schl": "891",
    "name": "Baker El Sch",
    "lat": 40.513442,
    "lon": -78.397839,
    "address": "108 W Ward Ave, Altoona, 16602",
    "math": 66.9,
    "math_state": 41.7,
    "ela": 64.9,
    "ela_state": 49.9,
    "attendance": 89.3,
    "attendance_state": 79.6
  },
  {
    "aun": "108070502",
    "schl": "895",
    "name": "Juniata El Sch",
    "lat": 40.513442,
    "lon": -78.397839,
    "address": "418 N 8th Ave Juniata, Altoona, 16601",
    "math": 57.5,
    "math_state": 41.7,
    "ela": 48.9,
    "ela_state": 49.9,
    "attendance": 79.3,
    "attendance_state": 79.6
  },
  {
    "aun": "108070502",
    "schl": "902",
    "name": "Pleasant Valley El Sch",
    "lat": 40.513442,
    "lon": -78.397839,
    "address": "310 Cayuga Avenue, Altoona, 16602",
    "math": 40.2,
    "math_state": 41.7,
    "ela": 47.4,
    "ela_state": 49.9,
    "attendance": 86.2,
    "attendance_state": 79.6
  },
  {
    "aun": "108070502",
    "schl": "908",
    "name": "Irving El Sch",
    "lat": 40.513442,
    "lon": -78.397839,
    "address": "110 Cherry Ave, Altoona, 16601",
    "math": 74.8,
    "math_state": 41.7,
    "ela": 64.6,
    "ela_state": 49.9,
    "attendance": 97.3,
    "attendance_state": 79.6
  },
  {
    "aun": "108070502",
    "schl": "913",
    "name": "Altoona Area HS",
    "lat": 40.513442,
    "lon": -78.397839,
    "address": "1404 6th Ave, Altoona, 16602",
    "math": 36.7,
    "math_state": 41.7,
    "ela": 51.5,
    "ela_state": 49.9,
    "attendance": 71.9,
    "attendance_state": 79.6
  },
  {
    "aun": "108070502",
    "schl": "930",
    "name": "Juniata Gap El Sch",
    "lat": 40.513442,
    "lon": -78.397839,
    "address": "3365 Juniata Gap Road, Altoona, 16601",
    "math": 52.2,
    "math_state": 41.7,
    "ela": 50.4,
    "ela_state": 49.9,
    "attendance": 88.3,
    "attendance_state": 79.6
  },
  {
    "aun": "108070502",
    "schl": "933",
    "name": "Logan El Sch",
    "lat": 40.513442,
    "lon": -78.397839,
    "address": "301 Sycamore Street Greenwood, Altoona, 16602",
    "math": 42.7,
    "math_state": 41.7,
    "ela": 28.9,
    "ela_state": 49.9,
    "attendance": 84.7,
    "attendance_state": 79.6
  },
  {
    "aun": "108070502",
    "schl": "7199",
    "name": "Mowrie A Ebner El Sch",
    "lat": 40.513442,
    "lon": -78.397839,
    "address": "308 Hillside Avenue, Altoona, 16601",
    "math": 33.5,
    "math_state": 41.7,
    "ela": 38.7,
    "ela_state": 49.9,
    "attendance": 85.1,
    "attendance_state": 79.6
  },
  {
    "aun": "108070502",
    "schl": "7425",
    "name": "Kimmel Alternative School",
    "lat": 40.513442,
    "lon": -78.397839,
    "address": "200 East Crawford Avenue, Altoona, 16602",
    "math": null,
    "math_state": null,
    "ela": null,
    "ela_state": null,
    "attendance": null,
    "attendance_state": null
  },
  {
    "aun": "108070502",
    "schl": "7986",
    "name": "Altoona Area Jr HS",
    "lat": 40.513442,
    "lon": -78.397839,
    "address": "1400 7th Ave, Altoona, 16602",
    "math": 31.7,
    "math_state": 41.7,
    "ela": 43.4,
    "ela_state": 49.9,
    "attendance": 73.5,
    "attendance_state": 79.6
  },
  {
    "aun": "108070502",
    "schl": "8280",
    "name": "Penn-Lincoln El Sch",
    "lat": 40.513442,
    "lon": -78.397839,
    "address": "411 12th St, Altoona, 16602",
    "math": 19.9,
    "math_state": 41.7,
    "ela": 25.3,
    "ela_state": 49.9,
    "attendance": 79.2,
    "attendance_state": 79.6
  },
  {
    "aun": "108070502",
    "schl": "8545",
    "name": "Washington & Jefferson El Sch",
    "lat": 40.513442,
    "lon": -78.397839,
    "address": "420 1st Ave, Altoona, 16602",
    "math": null,
    "math_state": null,
    "ela": null,
    "ela_state": null,
    "attendance": null,
    "attendance_state": null
  },
  {
    "aun": "127040703",
    "schl": "629",
    "name": "Economy El Sch",
    "lat": 40.587813,
    "lon": -80.230769,
    "address": "1000 First Street, Freedom, 15042",
    "math": 50.7,
    "math_state": 41.7,
    "ela": 42.9,
    "ela_state": 49.9,
    "attendance": 85.3,
    "attendance_state": 79.6
  },
  {
    "aun": "127040703",
    "schl": "632",
    "name": "State Street El Sch",
    "lat": 40.587813,
    "lon": -80.230769,
    "address": "600 Harmony Road, Baden, 15005",
    "math": 50.5,
    "math_state": 41.7,
    "ela": 61.4,
    "ela_state": 49.9,
    "attendance": 74.1,
    "attendance_state": 79.6
  },
  {
    "aun": "127040703",
    "schl": "633",
    "name": "Ambridge Area MS",
    "lat": 40.587813,
    "lon": -80.230769,
    "address": "401 First Street, Freedom, 15042",
    "math": 14.4,
    "math_state": 41.7,
    "ela": 38.1,
    "ela_state": 49.9,
    "attendance": 75.3,
    "attendance_state": 79.6
  },
  {
    "aun": "127040703",
    "schl": "661",
    "name": "Highland El Sch",
    "lat": 40.587813,
    "lon": -80.230769,
    "address": "1101 Highland Avenue, Ambridge, 15003",
    "math": 25.0,
    "math_state": 41.7,
    "ela": 26.9,
    "ela_state": 49.9,
    "attendance": 65.7,
    "attendance_state": 79.6
  },
  {
    "aun": "127040703",
    "schl": "6555",
    "name": "Ambridge Area HS",
    "lat": 40.587813,
    "lon": -80.230769,
    "address": "909 Duss Avenue, Ambridge, 15003",
    "math": 27.2,
    "math_state": 41.7,
    "ela": 45.0,
    "ela_state": 49.9,
    "attendance": 72.2,
    "attendance_state": 79.6
  },
  {
    "aun": "113380303",
    "schl": "2723",
    "name": "Cleona El Sch",
    "lat": 40.322465,
    "lon": -76.510926,
    "address": "50 E Walnut St, Cleona, 17042",
    "math": null,
    "math_state": 41.7,
    "ela": null,
    "ela_state": 49.9,
    "attendance": 89.1,
    "attendance_state": 79.6
  },
  {
    "aun": "113380303",
    "schl": "2724",
    "name": "Annville El Sch",
    "lat": 40.322465,
    "lon": -76.510926,
    "address": "205 S White Oak St, Annville, 17003",
    "math": 50.1,
    "math_state": 41.7,
    "ela": 55.7,
    "ela_state": 49.9,
    "attendance": 91.2,
    "attendance_state": 79.6
  },
  {
    "aun": "113380303",
    "schl": "2725",
    "name": "Annville Cleona HS",
    "lat": 40.322465,
    "lon": -76.510926,
    "address": "500 S White Oak St, Annville, 17003",
    "math": 43.3,
    "math_state": 41.7,
    "ela": 53.7,
    "ela_state": 49.9,
    "attendance": 75.8,
    "attendance_state": 79.6
  },
  {
    "aun": "113380303",
    "schl": "8178",
    "name": "Annville-Cleona MS",
    "lat": 40.322465,
    "lon": -76.510926,
    "address": "500 S White Oak St, Annville, 17003",
    "math": 39.9,
    "math_state": 41.7,
    "ela": 58.7,
    "ela_state": 49.9,
    "attendance": 85.0,
    "attendance_state": 79.6
  },
  {
    "aun": "114060503",
    "schl": "820",
    "name": "Antietam HS",
    "lat": 40.389636,
    "lon": -75.861373,
    "address": "201 N 25th St, Reading, 19606",
    "math": 27.1,
    "math_state": 41.7,
    "ela": 46.3,
    "ela_state": 49.9,
    "attendance": 80.2,
    "attendance_state": 79.6
  },
  {
    "aun": "114060503",
    "schl": "5205",
    "name": "Kerry C. Hoffman Intermediate Sch",
    "lat": 40.389636,
    "lon": -75.861373,
    "address": "2310 Cumberland Ave, Mount Penn, 19606",
    "math": 21.3,
    "math_state": 41.7,
    "ela": 32.1,
    "ela_state": 49.9,
    "attendance": 79.1,
    "attendance_state": 79.6
  },
  {
    "aun": "114060503",
    "schl": "8482",
    "name": "Stony Creek El Sch",
    "lat": 40.389636,
    "lon": -75.861373,
    "address": "100 Antietam Rd, Reading, 19606",
    "math": 16.9,
    "math_state": 41.7,
    "ela": 22.5,
    "ela_state": 49.9,
    "attendance": 83.0,
    "attendance_state": 79.6
  },
  {
    "aun": "104510394",
    "schl": "8031",
    "name": "Antonia Pantoja Community CS",
    "lat": 40.0134,
    "lon": -75.131293,
    "address": "4101 North American Street, Philadelphia, 19140",
    "math": 15.7,
    "math_state": 41.7,
    "ela": 31.7,
    "ela_state": 49.9,
    "attendance": 74.7,
    "attendance_state": 79.6
  },
  {
    "aun": "128030603",
    "schl": "2320",
    "name": "Apollo-Ridge HS",
    "lat": 40.608525,
    "lon": -79.474748,
    "address": "1825 State Route 56, Spring Church, 15686",
    "math": 35.3,
    "math_state": 41.7,
    "ela": 66.7,
    "ela_state": 49.9,
    "attendance": 67.2,
    "attendance_state": 79.6
  },
  {
    "aun": "128030603",
    "schl": "6570",
    "name": "Apollo-Ridge MS",
    "lat": 40.608525,
    "lon": -79.474748,
    "address": "1829 State Route 56, Spring Church, 15686",
    "math": 23.5,
    "math_state": 41.7,
    "ela": 51.2,
    "ela_state": 49.9,
    "attendance": 82.6,
    "attendance_state": 79.6
  },
  {
    "aun": "128030603",
    "schl": "7787",
    "name": "Apollo-Ridge Elem Sch",
    "lat": 40.608525,
    "lon": -79.474748,
    "address": "1831 State Route 56, Spring Church, 15686",
    "math": 47.6,
    "math_state": 41.7,
    "ela": 42.0,
    "ela_state": 49.9,
    "attendance": 85.7,
    "attendance_state": 79.6
  },
  {
    "aun": "128030852",
    "schl": "569",
    "name": "Dayton El Sch",
    "lat": 40.770652,
    "lon": -79.524862,
    "address": "175 E. Grant Avenue, Dayton, 16222",
    "math": 57.9,
    "math_state": 41.7,
    "ela": 54.2,
    "ela_state": 49.9,
    "attendance": 86.0,
    "attendance_state": 79.6
  },
  {
    "aun": "128030852",
    "schl": "5002",
    "name": "Lenape El Sch",
    "lat": 40.770652,
    "lon": -79.524862,
    "address": "2300 Center Ave, Ford City, 16226",
    "math": 45.9,
    "math_state": 41.7,
    "ela": 39.4,
    "ela_state": 49.9,
    "attendance": 83.4,
    "attendance_state": 79.6
  },
  {
    "aun": "128030852",
    "schl": "6574",
    "name": "Elderton El Sch",
    "lat": 40.770652,
    "lon": -79.524862,
    "address": "239 S. Lytle Street, Elderton, 15736",
    "math": 60.6,
    "math_state": 41.7,
    "ela": 42.5,
    "ela_state": 49.9,
    "attendance": 92.3,
    "attendance_state": 79.6
  },
  {
    "aun": "128030852",
    "schl": "6577",
    "name": "Shannock Valley El Sch",
    "lat": 40.770652,
    "lon": -79.524862,
    "address": "210 Cowanshannock Avenue, Rural Valley, 16249",
    "math": 53.8,
    "math_state": 41.7,
    "ela": 52.0,
    "ela_state": 49.9,
    "attendance": 82.5,
    "attendance_state": 79.6
  },
  {
    "aun": "128030852",
    "schl": "7640",
    "name": "West Shamokin JSHS",
    "lat": 40.770652,
    "lon": -79.524862,
    "address": "178 Wolf Drive, Rural Valley, 16249",
    "math": 34.4,
    "math_state": 41.7,
    "ela": 66.4,
    "ela_state": 49.9,
    "attendance": 77.7,
    "attendance_state": 79.6
  },
  {
    "aun": "128030852",
    "schl": "7895",
    "name": "West Hills Primary Sch",
    "lat": 40.770652,
    "lon": -79.524862,
    "address": "181 Heritage Park Drive, Kittanning, 16201",
    "math": 67.6,
    "math_state": 41.7,
    "ela": 50.0,
    "ela_state": 49.9,
    "attendance": 85.4,
    "attendance_state": 79.6
  },
  {
    "aun": "128030852",
    "schl": "7896",
    "name": "West Hills Intermediate Sch",
    "lat": 40.770652,
    "lon": -79.524862,
    "address": "175 Heritage Park Drive, Kittanning, 16201",
    "math": 46.8,
    "math_state": 41.7,
    "ela": 43.4,
    "ela_state": 49.9,
    "attendance": 86.2,
    "attendance_state": 79.6
  },
  {
    "aun": "128030852",
    "schl": "8342",
    "name": "Armstrong JSHS",
    "lat": 40.770652,
    "lon": -79.524862,
    "address": "300 Buffington Dr, Kittanning, 16201",
    "math": 39.2,
    "math_state": 41.7,
    "ela": 54.8,
    "ela_state": 49.9,
    "attendance": 76.6,
    "attendance_state": 79.6
  },
  {
    "aun": "121395927",
    "schl": "8214",
    "name": "Arts Academy CS",
    "lat": 40.590329,
    "lon": -75.417924,
    "address": "1610 East Emmaus Avenue, Allentown, 18103",
    "math": 4.9,
    "math_state": 41.7,
    "ela": 30.7,
    "ela_state": 49.9,
    "attendance": 66.2,
    "attendance_state": 79.6
  },
  {
    "aun": "121399898",
    "schl": "8336",
    "name": "Arts Academy Elementary CS",
    "lat": 40.599928,
    "lon": -75.468574,
    "address": "601 W Union Street, Allentown, 18101",
    "math": 14.2,
    "math_state": 41.7,
    "ela": 17.4,
    "ela_state": 49.9,
    "attendance": 63.2,
    "attendance_state": 79.6
  },
  {
    "aun": "181519176",
    "schl": "8148",
    "name": "ASPIRA Bilingual Cyber CS",
    "lat": 39.914436,
    "lon": -75.173491,
    "address": "6301 N. 2nd Street, Philadelphia, 19120",
    "math": 2.1,
    "math_state": 41.7,
    "ela": 5.3,
    "ela_state": 49.9,
    "attendance": 43.1,
    "attendance_state": 79.6
  },
  {
    "aun": "117080503",
    "schl": "958",
    "name": "Athens Area HS",
    "lat": 41.963854,
    "lon": -76.524886,
    "address": "401 West Frederick Street, Athens, 18810",
    "math": 40.7,
    "math_state": 41.7,
    "ela": 53.4,
    "ela_state": 49.9,
    "attendance": 79.3,
    "attendance_state": 79.6
  },
  {
    "aun": "117080503",
    "schl": "4918",
    "name": "Audrielle Lynch-Ellen Bustin El Sch",
    "lat": 41.963854,
    "lon": -76.524886,
    "address": "50 Wildcat Way, Athens, 18810",
    "math": 39.1,
    "math_state": 41.7,
    "ela": 32.1,
    "ela_state": 49.9,
    "attendance": 92.7,
    "attendance_state": 79.6
  },
  {
    "aun": "117080503",
    "schl": "8219",
    "name": "SRU El Sch",
    "lat": 41.963854,
    "lon": -76.524886,
    "address": "1 Church Street, East Smithfield, 18817",
    "math": 35.6,
    "math_state": 41.7,
    "ela": 30.8,
    "ela_state": 49.9,
    "attendance": 92.7,
    "attendance_state": 79.6
  },
  {
    "aun": "117080503",
    "schl": "8220",
    "name": "Harlan Rowe MS",
    "lat": 41.963854,
    "lon": -76.524886,
    "address": "200 Wildcat Way, Athens, 18810",
    "math": 30.5,
    "math_state": 41.7,
    "ela": 53.8,
    "ela_state": 49.9,
    "attendance": 87.0,
    "attendance_state": 79.6
  },
  {
    "aun": "109530304",
    "schl": "6221",
    "name": "Austin Area El Sch",
    "lat": 41.608137,
    "lon": -78.066506,
    "address": "138 Costello Avenue, Austin, 16720",
    "math": 72.4,
    "math_state": 41.7,
    "ela": 44.8,
    "ela_state": 49.9,
    "attendance": 92.1,
    "attendance_state": 79.6
  },
  {
    "aun": "109530304",
    "schl": "6222",
    "name": "Austin Area JSHS",
    "lat": 41.608137,
    "lon": -78.066506,
    "address": "138 Costello Avenue, Austin, 16720",
    "math": 52.2,
    "math_state": 41.7,
    "ela": 40.9,
    "ela_state": 49.9,
    "attendance": 82.9,
    "attendance_state": 79.6
  },
  {
    "aun": "101630504",
    "schl": "4165",
    "name": "Avella Area JSHS",
    "lat": 40.273145,
    "lon": -80.416502,
    "address": "1000 Avella Rd, Avella, 15312",
    "math": 31.1,
    "math_state": 41.7,
    "ela": 58.3,
    "ela_state": 49.9,
    "attendance": 75.5,
    "attendance_state": 79.6
  },
  {
    "aun": "101630504",
    "schl": "7098",
    "name": "Avella El Center",
    "lat": 40.273145,
    "lon": -80.416502,
    "address": "1000 Avella Rd, Avella, 15312",
    "math": 37.8,
    "math_state": 41.7,
    "ela": 44.9,
    "ela_state": 49.9,
    "attendance": 87.2,
    "attendance_state": 79.6
  },
  {
    "aun": "124150003",
    "schl": "7721",
    "name": "Avon Grove CS",
    "lat": 39.823986,
    "lon": -75.804419,
    "address": "110 East State Road, West Grove, 19390",
    "math": 48.4,
    "math_state": 41.7,
    "ela": 55.0,
    "ela_state": 49.9,
    "attendance": 88.0,
    "attendance_state": 79.6
  },
  {
    "aun": "124150503",
    "schl": "1365",
    "name": "Avon Grove Intrmd Sch",
    "lat": 39.814254033855,
    "lon": -75.816811195052,
    "address": "395 S. Jennersville Road, West Grove, 19390",
    "math": 61.5,
    "math_state": 41.7,
    "ela": 56.1,
    "ela_state": 49.9,
    "attendance": 95.7,
    "attendance_state": 79.6
  },
  {
    "aun": "124150503",
    "schl": "1367",
    "name": "Avon Grove HS",
    "lat": 39.814254033855,
    "lon": -75.816811195052,
    "address": "10 Waltman Way, West Grove, 19390",
    "math": 64.7,
    "math_state": 41.7,
    "ela": 81.4,
    "ela_state": 49.9,
    "attendance": 83.5,
    "attendance_state": 79.6
  },
  {
    "aun": "124150503",
    "schl": "5216",
    "name": "Avon Grove MS",
    "lat": 39.814254033855,
    "lon": -75.816811195052,
    "address": "257 State Rd, West Grove, 19390",
    "math": 48.0,
    "math_state": 41.7,
    "ela": 66.5,
    "ela_state": 49.9,
    "attendance": 91.6,
    "attendance_state": 79.6
  },
  {
    "aun": "124150503",
    "schl": "7323",
    "name": "Penn London El Sch",
    "lat": 39.814254033855,
    "lon": -75.816811195052,
    "address": "383 S Jennersville Rd, West Grove, 19390",
    "math": null,
    "math_state": 41.7,
    "ela": null,
    "ela_state": 49.9,
    "attendance": 93.4,
    "attendance_state": 79.6
  },
  {
    "aun": "103020753",
    "schl": "34",
    "name": "Avonworth El Sch",
    "lat": 40.530372,
    "lon": -80.077027,
    "address": "1320 Roosevelt Rd, Pittsburgh, 15237",
    "math": 65.4,
    "math_state": 41.7,
    "ela": 61.4,
    "ela_state": 49.9,
    "attendance": 92.5,
    "attendance_state": 79.6
  },
  {
    "aun": "103020753",
    "schl": "5199",
    "name": "Avonworth HS",
    "lat": 40.530372,
    "lon": -80.077027,
    "address": "304 Josephs Lane, Pittsburgh, 15237",
    "math": 59.7,
    "math_state": 41.7,
    "ela": 76.7,
    "ela_state": 49.9,
    "attendance": 78.9,
    "attendance_state": 79.6
  },
  {
    "aun": "103020753",
    "schl": "7669",
    "name": "Avonworth MS",
    "lat": 40.530372,
    "lon": -80.077027,
    "address": "304 Josephs Lane, Pittsburgh, 15237",
    "math": 61.4,
    "math_state": 41.7,
    "ela": 67.5,
    "ela_state": 49.9,
    "attendance": 88.2,
    "attendance_state": 79.6
  },
  {
    "aun": "103020753",
    "schl": "8320",
    "name": "Avonworth Primary Center",
    "lat": 40.530372,
    "lon": -80.077027,
    "address": "1310 Roosevelt Road, Pittsburgh, 15237",
    "math": null,
    "math_state": 41.7,
    "ela": null,
    "ela_state": 49.9,
    "attendance": 94.0,
    "attendance_state": 79.6
  },
  {
    "aun": "127046517",
    "schl": "8211",
    "name": "Baden Academy CS",
    "lat": 40.648644,
    "lon": -80.233854,
    "address": "1016 State Street, Baden, 15005",
    "math": 35.7,
    "math_state": 41.7,
    "ela": 30.7,
    "ela_state": 49.9,
    "attendance": 81.4,
    "attendance_state": 79.6
  },
  {
    "aun": "110141003",
    "schl": "1330",
    "name": "Wingate El Sch",
    "lat": 40.950174,
    "lon": -77.783995,
    "address": "776 S Eagle Valley Rd, Wingate, 16823",
    "math": 45.3,
    "math_state": 41.7,
    "ela": 33.5,
    "ela_state": 49.9,
    "attendance": 88.1,
    "attendance_state": 79.6
  },
  {
    "aun": "110141003",
    "schl": "1331",
    "name": "Port Matilda El Sch",
    "lat": 40.950174,
    "lon": -77.783995,
    "address": "209 Locust Street, Port Matilda, 16870",
    "math": 61.4,
    "math_state": 41.7,
    "ela": 54.5,
    "ela_state": 49.9,
    "attendance": 92.9,
    "attendance_state": 79.6
  },
  {
    "aun": "110141003",
    "schl": "1333",
    "name": "Howard El Sch",
    "lat": 40.950174,
    "lon": -77.783995,
    "address": "255 School Street, Howard, 16841",
    "math": 81.3,
    "math_state": 41.7,
    "ela": 72.7,
    "ela_state": 49.9,
    "attendance": 92.8,
    "attendance_state": 79.6
  },
  {
    "aun": "110141003",
    "schl": "1334",
    "name": "Mountaintop Area El Sch",
    "lat": 40.950174,
    "lon": -77.783995,
    "address": "100 School Dr # 865, Snow Shoe, 16874",
    "math": 63.0,
    "math_state": 41.7,
    "ela": 60.9,
    "ela_state": 49.9,
    "attendance": 87.4,
    "attendance_state": 79.6
  },
  {
    "aun": "110141003",
    "schl": "1335",
    "name": "Bald Eagle Area JSHS",
    "lat": 40.950174,
    "lon": -77.783995,
    "address": "710 S Eagle Valley Rd, Wingate, 16823",
    "math": 44.4,
    "math_state": 41.7,
    "ela": 49.3,
    "ela_state": 49.9,
    "attendance": 77.3,
    "attendance_state": 79.6
  },
  {
    "aun": "103021102",
    "schl": "37",
    "name": "McAnnulty El Sch",
    "lat": 40.353135,
    "lon": -79.992696,
    "address": "5151 McAnnulty Road, Pittsburgh, 15236",
    "math": null,
    "math_state": 41.7,
    "ela": null,
    "ela_state": 49.9,
    "attendance": 82.3,
    "attendance_state": 79.6
  },
  {
    "aun": "103021102",
    "schl": "48",
    "name": "Whitehall El Sch",
    "lat": 40.353135,
    "lon": -79.992696,
    "address": "4900 Curry Rd, Pittsburgh, 15236",
    "math": null,
    "math_state": 41.7,
    "ela": null,
    "ela_state": 49.9,
    "attendance": 89.3,
    "attendance_state": 79.6
  },
  {
    "aun": "103021102",
    "schl": "50",
    "name": "Baldwin SHS",
    "lat": 40.353135,
    "lon": -79.992696,
    "address": "4653 Clairton Blvd, Pittsburgh, 15236",
    "math": 31.5,
    "math_state": 41.7,
    "ela": 50.0,
    "ela_state": 49.9,
    "attendance": 82.3,
    "attendance_state": 79.6
  },
  {
    "aun": "103021102",
    "schl": "6787",
    "name": "J.E. Harrison MS",
    "lat": 40.353135,
    "lon": -79.992696,
    "address": "129 Windvale Dr, Pittsburgh, 15236",
    "math": 28.0,
    "math_state": 41.7,
    "ela": 44.5,
    "ela_state": 49.9,
    "attendance": 87.6,
    "attendance_state": 79.6
  },
  {
    "aun": "103021102",
    "schl": "8531",
    "name": "R.A. Lutz El Sch",
    "lat": 40.353135,
    "lon": -79.992696,
    "address": "3454 Pleasantvue Dr, Pittsburgh, 15227",
    "math": 53.9,
    "math_state": 41.7,
    "ela": 38.0,
    "ela_state": 49.9,
    "attendance": null,
    "attendance_state": 79.6
  },
  {
    "aun": "120480803",
    "schl": "3430",
    "name": "Washington El Sch",
    "lat": 40.887611,
    "lon": -75.152475,
    "address": "381 Washington Blvd, Bangor, 18013",
    "math": 68.2,
    "math_state": 41.7,
    "ela": 59.4,
    "ela_state": 49.9,
    "attendance": 88.0,
    "attendance_state": 79.6
  },
  {
    "aun": "120480803",
    "schl": "3434",
    "name": "Bangor Area HS",
    "lat": 40.887611,
    "lon": -75.152475,
    "address": "187 Five Points Richmond Rd, Bangor, 18013",
    "math": 52.0,
    "math_state": 41.7,
    "ela": 73.8,
    "ela_state": 49.9,
    "attendance": 76.3,
    "attendance_state": 79.6
  },
  {
    "aun": "120480803",
    "schl": "5257",
    "name": "Bangor Area MS",
    "lat": 40.887611,
    "lon": -75.152475,
    "address": "401 Five Points Richmond Rd, Bangor, 18013",
    "math": 35.8,
    "math_state": 41.7,
    "ela": 57.2,
    "ela_state": 49.9,
    "attendance": 82.9,
    "attendance_state": 79.6
  },
  {
    "aun": "120480803",
    "schl": "8449",
    "name": "Five Points El Sch",
    "lat": 40.887611,
    "lon": -75.152475,
    "address": "363 Five Points Richmond Rd, Bangor, 18013",
    "math": null,
    "math_state": 41.7,
    "ela": null,
    "ela_state": 49.9,
    "attendance": 82.7,
    "attendance_state": 79.6
  },
  {
    "aun": "120480803",
    "schl": "8450",
    "name": "DeFranco El Sch",
    "lat": 40.887611,
    "lon": -75.152475,
    "address": "267 Five Points Richmond Rd, Bangor, 18013",
    "math": 52.2,
    "math_state": 41.7,
    "ela": 49.6,
    "ela_state": 49.9,
    "attendance": 84.1,
    "attendance_state": 79.6
  },
  {
    "aun": "118400001",
    "schl": "7827",
    "name": "Bear Creek Community CS",
    "lat": 41.245284,
    "lon": -75.826197,
    "address": "30 Charter School Way, Bear Creek Township, 18702",
    "math": 39.8,
    "math_state": 41.7,
    "ela": 43.0,
    "ela_state": 49.9,
    "attendance": 79.7,
    "attendance_state": 79.6
  },
  {
    "aun": "127041203",
    "schl": "640",
    "name": "Beaver Area SHS",
    "lat": 40.692148,
    "lon": -80.306683,
    "address": "Gypsy Glen Rd, Beaver, 15009",
    "math": 58.4,
    "math_state": 41.7,
    "ela": 75.8,
    "ela_state": 49.9,
    "attendance": 82.9,
    "attendance_state": 79.6
  },
  {
    "aun": "127041203",
    "schl": "7386",
    "name": "Beaver Area MS",
    "lat": 40.692148,
    "lon": -80.306683,
    "address": "Gypsy Glen Rd, Beaver, 15009",
    "math": 52.7,
    "math_state": 41.7,
    "ela": 71.9,
    "ela_state": 49.9,
    "attendance": 91.3,
    "attendance_state": 79.6
  },
  {
    "aun": "127041203",
    "schl": "7823",
    "name": "Dutch Ridge El Sch",
    "lat": 40.692148,
    "lon": -80.306683,
    "address": "2220 Dutch Ridge Road, Beaver, 15009",
    "math": 76.7,
    "math_state": 41.7,
    "ela": 75.7,
    "ela_state": 49.9,
    "attendance": 93.2,
    "attendance_state": 79.6
  },
  {
    "aun": "127041203",
    "schl": "8065",
    "name": "College Square El Sch",
    "lat": 40.692148,
    "lon": -80.306683,
    "address": "375 College Ave, Beaver, 15009",
    "math": null,
    "math_state": 41.7,
    "ela": null,
    "ela_state": 49.9,
    "attendance": 90.4,
    "attendance_state": 79.6
  },
  {
    "aun": "127041307",
    "schl": "6985",
    "name": "Beaver County CTC",
    "lat": 40.656752,
    "lon": -80.309241,
    "address": "145 Poplar Avenue, Monaca, 15061",
    "math": null,
    "math_state": 41.7,
    "ela": null,
    "ela_state": 49.9,
    "attendance": 50.8,
    "attendance_state": 79.6
  },
  {
    "aun": "108051003",
    "schl": "726",
    "name": "Bedford SHS",
    "lat": 40.016024,
    "lon": -78.499003,
    "address": "330 E John St, Bedford, 15522",
    "math": 68.9,
    "math_state": 41.7,
    "ela": 74.3,
    "ela_state": 49.9,
    "attendance": 72.2,
    "attendance_state": 79.6
  },
  {
    "aun": "108051003",
    "schl": "7021",
    "name": "Bedford MS",
    "lat": 40.016024,
    "lon": -78.499003,
    "address": "440 E Watson St, Bedford, 15522",
    "math": 41.4,
    "math_state": 41.7,
    "ela": 58.6,
    "ela_state": 49.9,
    "attendance": 82.5,
    "attendance_state": 79.6
  },
  {
    "aun": "108051003",
    "schl": "7545",
    "name": "Bedford El Sch",
    "lat": 40.016024,
    "lon": -78.499003,
    "address": "3639 Business Route 220, Bedford, 15522",
    "math": 44.1,
    "math_state": 41.7,
    "ela": 38.0,
    "ela_state": 49.9,
    "attendance": 86.6,
    "attendance_state": 79.6
  },
  {
    "aun": "108051307",
    "schl": "7096",
    "name": "Bedford County Technical Center",
    "lat": 40.022431,
    "lon": -78.436405,
    "address": "195 Pennknoll Road, Everett, 15537",
    "math": null,
    "math_state": 41.7,
    "ela": null,
    "ela_state": 49.9,
    "attendance": 63.2,
    "attendance_state": 79.6
  },
  {
    "aun": "107650603",
    "schl": "4325",
    "name": "Rostraver El Sch",
    "lat": 40.177833,
    "lon": -79.816154,
    "address": "300 Crest Ave, Belle Vernon, 15012",
    "math": 58.7,
    "math_state": 41.7,
    "ela": 54.8,
    "ela_state": 49.9,
    "attendance": 88.1,
    "attendance_state": 79.6
  },
  {
    "aun": "107650603",
    "schl": "4328",
    "name": "Marion El Sch",
    "lat": 40.177833,
    "lon": -79.816154,
    "address": "500 Perry Ave, Belle Vernon, 15012",
    "math": 38.1,
    "math_state": 41.7,
    "ela": 39.7,
    "ela_state": 49.9,
    "attendance": 77.8,
    "attendance_state": 79.6
  },
  {
    "aun": "107650603",
    "schl": "4930",
    "name": "Belle Vernon Area HS",
    "lat": 40.177833,
    "lon": -79.816154,
    "address": "425 Crest Ave, Belle Vernon, 15012",
    "math": 31.1,
    "math_state": 41.7,
    "ela": 69.3,
    "ela_state": 49.9,
    "attendance": 62.4,
    "attendance_state": 79.6
  },
  {
    "aun": "107650603",
    "schl": "8269",
    "name": "Belle Vernon Area MS",
    "lat": 40.177833,
    "lon": -79.816154,
    "address": "500 Perry Ave, Belle Vernon, 15012",
    "math": 30.8,
    "math_state": 41.7,
    "ela": 47.3,
    "ela_state": 49.9,
    "attendance": 72.7,
    "attendance_state": 79.6
  },
  {
    "aun": "110141103",
    "schl": "1339",
    "name": "Benner El Sch",
    "lat": 40.915784,
    "lon": -77.77919,
    "address": "490 Buffalo Run Rd, Bellefonte, 16823",
    "math": 75.0,
    "math_state": 41.7,
    "ela": 67.9,
    "ela_state": 49.9,
    "attendance": 89.3,
    "attendance_state": 79.6
  },
  {
    "aun": "110141103",
    "schl": "1340",
    "name": "Marion-Walker El Sch",
    "lat": 40.915784,
    "lon": -77.77919,
    "address": "100 School Dr, Bellefonte, 16823",
    "math": 69.7,
    "math_state": 41.7,
    "ela": 63.6,
    "ela_state": 49.9,
    "attendance": 95.4,
    "attendance_state": 79.6
  },
  {
    "aun": "110141103",
    "schl": "1341",
    "name": "Bellefonte El Sch",
    "lat": 40.915784,
    "lon": -77.77919,
    "address": "100 W Linn St, Bellefonte, 16823",
    "math": 47.8,
    "math_state": 41.7,
    "ela": 45.9,
    "ela_state": 49.9,
    "attendance": 85.2,
    "attendance_state": 79.6
  },
  {
    "aun": "110141103",
    "schl": "1342",
    "name": "Bellefonte Area MS",
    "lat": 40.915784,
    "lon": -77.77919,
    "address": "100 N School St, Bellefonte, 16823",
    "math": 39.7,
    "math_state": 41.7,
    "ela": 56.2,
    "ela_state": 49.9,
    "attendance": 87.1,
    "attendance_state": 79.6
  },
  {
    "aun": "110141103",
    "schl": "1343",
    "name": "Bellefonte Area HS",
    "lat": 40.915784,
    "lon": -77.77919,
    "address": "830 E Bishop St, Bellefonte, 16823",
    "math": 53.3,
    "math_state": 41.7,
    "ela": 67.0,
    "ela_state": 49.9,
    "attendance": 76.4,
    "attendance_state": 79.6
  },
  {
    "aun": "110141103",
    "schl": "6229",
    "name": "Pleasant Gap El Sch",
    "lat": 40.915784,
    "lon": -77.77919,
    "address": "230 S Main St, Pleasant Gap, 16823",
    "math": 64.0,
    "math_state": 41.7,
    "ela": 54.0,
    "ela_state": 49.9,
    "attendance": 87.2,
    "attendance_state": 79.6
  },
  {
    "aun": "108071003",
    "schl": "914",
    "name": "Lewis M Myers El Sch",
    "lat": 40.595011,
    "lon": -78.329879,
    "address": "220 Martin Street, Bellwood, 16617",
    "math": 59.2,
    "math_state": 41.7,
    "ela": 63.8,
    "ela_state": 49.9,
    "attendance": 93.0,
    "attendance_state": 79.6
  },
  {
    "aun": "108071003",
    "schl": "917",
    "name": "Bellwood-Antis HS",
    "lat": 40.595011,
    "lon": -78.329879,
    "address": "400 Martin Street, Bellwood, 16617",
    "math": 57.7,
    "math_state": 41.7,
    "ela": 60.5,
    "ela_state": 49.9,
    "attendance": 79.6,
    "attendance_state": 79.6
  },
  {
    "aun": "108071003",
    "schl": "7144",
    "name": "Bellwood Antis MS",
    "lat": 40.595011,
    "lon": -78.329879,
    "address": "400 Martin Street, Bellwood, 16617",
    "math": 36.3,
    "math_state": 41.7,
    "ela": 54.1,
    "ela_state": 49.9,
    "attendance": 87.1,
    "attendance_state": 79.6
  },
  {
    "aun": "126510010",
    "schl": "7750",
    "name": "Belmont CS",
    "lat": 39.967219,
    "lon": -75.204375,
    "address": "4030 Brown Street, Philadelphia, 19104",
    "math": 6.1,
    "math_state": 41.7,
    "ela": 17.5,
    "ela_state": 49.9,
    "attendance": 44.7,
    "attendance_state": 79.6
  },
  {
    "aun": "122091002",
    "schl": "1006",
    "name": "Cornwells El Sch",
    "lat": 40.141649,
    "lon": -74.925179,
    "address": "2215 Hulmeville Rd, Bensalem, 19020",
    "math": 40.6,
    "math_state": 41.7,
    "ela": 44.1,
    "ela_state": 49.9,
    "attendance": 83.8,
    "attendance_state": 79.6
  },
  {
    "aun": "122091002",
    "schl": "1008",
    "name": "Samuel K Faust El Sch",
    "lat": 40.141649,
    "lon": -74.925179,
    "address": "2901 Bellvue Dr, Bensalem, 19020",
    "math": 34.6,
    "math_state": 41.7,
    "ela": 35.6,
    "ela_state": 49.9,
    "attendance": 81.8,
    "attendance_state": 79.6
  },
  {
    "aun": "122091002",
    "schl": "4675",
    "name": "Benjamin Rush El Sch",
    "lat": 40.141649,
    "lon": -74.925179,
    "address": "3400 Hulmeville Rd, Bensalem, 19020",
    "math": 23.6,
    "math_state": 41.7,
    "ela": 27.9,
    "ela_state": 49.9,
    "attendance": 83.4,
    "attendance_state": 79.6
  },
  {
    "aun": "122091002",
    "schl": "5116",
    "name": "Bensalem Twp HS",
    "lat": 40.141649,
    "lon": -74.925179,
    "address": "4319 Hulmeville Rd, Bensalem, 19020",
    "math": 29.0,
    "math_state": 41.7,
    "ela": 51.3,
    "ela_state": 49.9,
    "attendance": 59.6,
    "attendance_state": 79.6
  },
  {
    "aun": "122091002",
    "schl": "5211",
    "name": "Belmont Hills El Sch",
    "lat": 40.141649,
    "lon": -74.925179,
    "address": "5000 Neshaminy Blvd, Bensalem, 19020",
    "math": 40.6,
    "math_state": 41.7,
    "ela": 40.9,
    "ela_state": 49.9,
    "attendance": 81.5,
    "attendance_state": 79.6
  },
  {
    "aun": "122091002",
    "schl": "6451",
    "name": "Cecelia Snyder MS",
    "lat": 40.141649,
    "lon": -74.925179,
    "address": "3330 Hulmeville Rd, Bensalem, 19020",
    "math": 12.0,
    "math_state": 41.7,
    "ela": 36.5,
    "ela_state": 49.9,
    "attendance": 75.8,
    "attendance_state": 79.6
  },
  {
    "aun": "122091002",
    "schl": "6788",
    "name": "Valley El Sch",
    "lat": 40.141649,
    "lon": -74.925179,
    "address": "3100 Donallen Dr, Bensalem, 19020",
    "math": 36.5,
    "math_state": 41.7,
    "ela": 39.2,
    "ela_state": 49.9,
    "attendance": 86.7,
    "attendance_state": 79.6
  },
  {
    "aun": "122091002",
    "schl": "6896",
    "name": "Russell C Struble El Sch",
    "lat": 40.141649,
    "lon": -74.925179,
    "address": "4300 Bensalem Blvd, Bensalem, 19020",
    "math": 39.1,
    "math_state": 41.7,
    "ela": 46.8,
    "ela_state": 49.9,
    "attendance": 88.5,
    "attendance_state": 79.6
  },
  {
    "aun": "122091002",
    "schl": "7030",
    "name": "Robert K Shafer MS",
    "lat": 40.141649,
    "lon": -74.925179,
    "address": "3333 Hulmeville Rd, Bensalem, 19020",
    "math": 28.6,
    "math_state": 41.7,
    "ela": 45.3,
    "ela_state": 49.9,
    "attendance": 78.4,
    "attendance_state": 79.6
  },
  {
    "aun": "116191004",
    "schl": "1594",
    "name": "Appleman El Sch",
    "lat": 41.200109,
    "lon": -76.378588,
    "address": "525 Park Street, Benton, 17814",
    "math": 71.6,
    "math_state": 41.7,
    "ela": 66.7,
    "ela_state": 49.9,
    "attendance": 85.5,
    "attendance_state": 79.6
  },
  {
    "aun": "116191004",
    "schl": "8433",
    "name": "Benton Area MS",
    "lat": 41.200109,
    "lon": -76.378588,
    "address": "400 Park St, Benton, 17814",
    "math": 53.1,
    "math_state": 41.7,
    "ela": 67.7,
    "ela_state": 49.9,
    "attendance": 73.2,
    "attendance_state": 79.6
  },
  {
    "aun": "116191004",
    "schl": "8434",
    "name": "Benton Area HS",
    "lat": 41.200109,
    "lon": -76.378588,
    "address": "400 Park St, Benton, 17814",
    "math": 52.0,
    "math_state": 41.7,
    "ela": 66.0,
    "ela_state": 49.9,
    "attendance": 62.9,
    "attendance_state": 79.6
  },
  {
    "aun": "101630903",
    "schl": "4188",
    "name": "Bentworth SHS",
    "lat": 40.127119,
    "lon": -80.027798,
    "address": "75 Bearcat Dr, Bentleyville, 15314",
    "math": 42.4,
    "math_state": 41.7,
    "ela": 53.6,
    "ela_state": 49.9,
    "attendance": 94.6,
    "attendance_state": 79.6
  },
  {
    "aun": "101630903",
    "schl": "7987",
    "name": "Bentworth El Ctr",
    "lat": 40.127119,
    "lon": -80.027798,
    "address": "100 Bearcat Dr, Bentleyville, 15314",
    "math": 62.6,
    "math_state": 41.7,
    "ela": 65.6,
    "ela_state": 49.9,
    "attendance": 98.7,
    "attendance_state": 79.6
  },
  {
    "aun": "101630903",
    "schl": "7988",
    "name": "Bentworth MS",
    "lat": 40.127119,
    "lon": -80.027798,
    "address": "563 LINCOLN AVENUE, BENTLEYVILLE, 15314",
    "math": 25.7,
    "math_state": 41.7,
    "ela": 52.1,
    "ela_state": 49.9,
    "attendance": 96.2,
    "attendance_state": 79.6
  },
  {
    "aun": "114060557",
    "schl": "6304",
    "name": "Berks CTC-East Campus",
    "lat": 40.386682,
    "lon": -75.994609,
    "address": "3307 Friedensburg Road, Oley, 19547",
    "math": null,
    "math_state": 41.7,
    "ela": null,
    "ela_state": 49.9,
    "attendance": 70.1,
    "attendance_state": 79.6
  },
  {
    "aun": "114060557",
    "schl": "7068",
    "name": "Berks CTC-West Campus",
    "lat": 40.386682,
    "lon": -75.994609,
    "address": "1057 County Welfare Road, Leesport, 19533",
    "math": null,
    "math_state": 41.7,
    "ela": null,
    "ela_state": 49.9,
    "attendance": 75.9,
    "attendance_state": 79.6
  },
  {
    "aun": "108561003",
    "schl": "6206",
    "name": "Berlin Brothersvalley El Sch",
    "lat": 39.921152,
    "lon": -78.947482,
    "address": "1025 E Main Street, Berlin, 15530",
    "math": 59.2,
    "math_state": 41.7,
    "ela": 45.8,
    "ela_state": 49.9,
    "attendance": 86.1,
    "attendance_state": 79.6
  },
  {
    "aun": "108561003",
    "schl": "6207",
    "name": "Berlin Brothersvalley SHS",
    "lat": 39.921152,
    "lon": -78.947482,
    "address": "1025 E Main Street, Berlin, 15530",
    "math": 54.4,
    "math_state": 41.7,
    "ela": 72.9,
    "ela_state": 49.9,
    "attendance": 76.4,
    "attendance_state": 79.6
  },
  {
    "aun": "108561003",
    "schl": "7645",
    "name": "Berlin Brothersvalley MS",
    "lat": 39.921152,
    "lon": -78.947482,
    "address": "1025 E Main Street, Berlin, 15530",
    "math": 33.6,
    "math_state": 41.7,
    "ela": 48.9,
    "ela_state": 49.9,
    "attendance": 85.0,
    "attendance_state": 79.6
  },
  {
    "aun": "112011103",
    "schl": "3",
    "name": "Bermudian Springs HS",
    "lat": 39.9793,
    "lon": -77.083994,
    "address": "7335 Carlisle Pike, York Springs, 17372",
    "math": 42.8,
    "math_state": 41.7,
    "ela": 67.3,
    "ela_state": 49.9,
    "attendance": 81.6,
    "attendance_state": 79.6
  },
  {
    "aun": "112011103",
    "schl": "6921",
    "name": "Bermudian Springs MS",
    "lat": 39.9793,
    "lon": -77.083994,
    "address": "7335 Carlisle Pike, York Springs, 17372",
    "math": 38.7,
    "math_state": 41.7,
    "ela": 48.5,
    "ela_state": 49.9,
    "attendance": 84.7,
    "attendance_state": 79.6
  },
  {
    "aun": "112011103",
    "schl": "7302",
    "name": "Bermudian Springs El Sch",
    "lat": 39.9793,
    "lon": -77.083994,
    "address": "7335 Carlisle Pike, York Springs, 17372",
    "math": 57.7,
    "math_state": 41.7,
    "ela": 45.7,
    "ela_state": 49.9,
    "attendance": 86.1,
    "attendance_state": 79.6
  },
  {
    "aun": "116191103",
    "schl": "1597",
    "name": "East Berwick El Sch",
    "lat": 41.06659,
    "lon": -76.222644,
    "address": "810 East Tenth Street, Berwick, 18603",
    "math": 60.4,
    "math_state": 41.7,
    "ela": 55.0,
    "ela_state": 49.9,
    "attendance": 74.9,
    "attendance_state": 79.6
  },
  {
    "aun": "116191103",
    "schl": "1605",
    "name": "Berwick Area HS",
    "lat": 41.06659,
    "lon": -76.222644,
    "address": "1100 Fowler Ave, Berwick, 18603",
    "math": 55.7,
    "math_state": 41.7,
    "ela": 66.2,
    "ela_state": 49.9,
    "attendance": 51.1,
    "attendance_state": 79.6
  },
  {
    "aun": "116191103",
    "schl": "6808",
    "name": "Berwick Area MS",
    "lat": 41.06659,
    "lon": -76.222644,
    "address": "1100 Evergreen Drive, Berwick, 18603",
    "math": 32.3,
    "math_state": 41.7,
    "ela": 43.1,
    "ela_state": 49.9,
    "attendance": 66.5,
    "attendance_state": 79.6
  },
  {
    "aun": "116191103",
    "schl": "8378",
    "name": "West Berwick El Sch",
    "lat": 41.06659,
    "lon": -76.222644,
    "address": "809 Sycamore St, Berwick, 18603",
    "math": 35.3,
    "math_state": 41.7,
    "ela": 41.0,
    "ela_state": 49.9,
    "attendance": 78.3,
    "attendance_state": 79.6
  },
  {
    "aun": "103021252",
    "schl": "55",
    "name": "Bethel Memorial El Sch",
    "lat": 40.336934,
    "lon": -80.045755,
    "address": "3301 S Park Rd, Bethel Park, 15102",
    "math": 71.4,
    "math_state": 41.7,
    "ela": 67.1,
    "ela_state": 49.9,
    "attendance": 96.2,
    "attendance_state": 79.6
  },
  {
    "aun": "103021252",
    "schl": "60",
    "name": "William Penn El Sch",
    "lat": 40.336934,
    "lon": -80.045755,
    "address": "110 Woodlet Ln, Bethel Park, 15102",
    "math": 95.2,
    "math_state": 41.7,
    "ela": 88.1,
    "ela_state": 49.9,
    "attendance": 95.2,
    "attendance_state": 79.6
  },
  {
    "aun": "103021252",
    "schl": "61",
    "name": "Independence MS",
    "lat": 40.336934,
    "lon": -80.045755,
    "address": "2807 Bethel Church Rd, Bethel Park, 15102",
    "math": 54.5,
    "math_state": 41.7,
    "ela": 65.5,
    "ela_state": 49.9,
    "attendance": 96.6,
    "attendance_state": 79.6
  },
  {
    "aun": "103021252",
    "schl": "62",
    "name": "Bethel Park HS",
    "lat": 40.336934,
    "lon": -80.045755,
    "address": "309 Church Rd, Bethel Park, 15102",
    "math": 57.9,
    "math_state": 41.7,
    "ela": 78.7,
    "ela_state": 49.9,
    "attendance": 90.1,
    "attendance_state": 79.6
  },
  {
    "aun": "103021252",
    "schl": "4802",
    "name": "Abraham Lincoln El Sch",
    "lat": 40.336934,
    "lon": -80.045755,
    "address": "1524 Hamilton Rd, Pittsburgh, 15234",
    "math": 72.3,
    "math_state": 41.7,
    "ela": 67.6,
    "ela_state": 49.9,
    "attendance": 97.1,
    "attendance_state": 79.6
  },
  {
    "aun": "103021252",
    "schl": "4902",
    "name": "George Washington El Sch",
    "lat": 40.336934,
    "lon": -80.045755,
    "address": "515 Clifton Rd, Bethel Park, 15102",
    "math": 67.8,
    "math_state": 41.7,
    "ela": 73.6,
    "ela_state": 49.9,
    "attendance": 97.2,
    "attendance_state": 79.6
  },
  {
    "aun": "103021252",
    "schl": "7326",
    "name": "Benjamin Franklin El Sch",
    "lat": 40.336934,
    "lon": -80.045755,
    "address": "5400 Florida Ave, Bethel Park, 15102",
    "math": 79.8,
    "math_state": 41.7,
    "ela": 72.4,
    "ela_state": 49.9,
    "attendance": 94.7,
    "attendance_state": 79.6
  },
  {
    "aun": "103021252",
    "schl": "7327",
    "name": "Neil Armstrong 5-6 MS",
    "lat": 40.336934,
    "lon": -80.045755,
    "address": "5800 Murray Ave, Bethel Park, 15102",
    "math": 63.5,
    "math_state": 41.7,
    "ela": 65.9,
    "ela_state": 49.9,
    "attendance": 87.1,
    "attendance_state": 79.6
  },
  {
    "aun": "120481002",
    "schl": "3436",
    "name": "Calypso El Sch",
    "lat": 40.633743,
    "lon": -75.360965,
    "address": "1021 Calypso Ave, Bethlehem, 18018",
    "math": 58.9,
    "math_state": 41.7,
    "ela": 53.3,
    "ela_state": 49.9,
    "attendance": 88.5,
    "attendance_state": 79.6
  },
  {
    "aun": "120481002",
    "schl": "3442",
    "name": "James Buchanan El Sch",
    "lat": 40.633743,
    "lon": -75.360965,
    "address": "1621 Catasauqua Road, Bethlehem, 18017",
    "math": 29.8,
    "math_state": 41.7,
    "ela": 31.6,
    "ela_state": 49.9,
    "attendance": 89.1,
    "attendance_state": 79.6
  },
  {
    "aun": "120481002",
    "schl": "3443",
    "name": "Lincoln El Sch",
    "lat": 40.633743,
    "lon": -75.360965,
    "address": "1260 Gresham St, Bethlehem, 18017",
    "math": 23.6,
    "math_state": 41.7,
    "ela": 24.2,
    "ela_state": 49.9,
    "attendance": 82.9,
    "attendance_state": 79.6
  },
  {
    "aun": "120481002",
    "schl": "3449",
    "name": "Governor Wolf El Sch",
    "lat": 40.633743,
    "lon": -75.360965,
    "address": "1920 Butztown Rd, Bethlehem, 18017",
    "math": 41.9,
    "math_state": 41.7,
    "ela": 35.1,
    "ela_state": 49.9,
    "attendance": 85.8,
    "attendance_state": 79.6
  },
  {
    "aun": "120481002",
    "schl": "3452",
    "name": "Spring Garden El Sch",
    "lat": 40.633743,
    "lon": -75.360965,
    "address": "901 North Blvd, Bethlehem, 18017",
    "math": 60.8,
    "math_state": 41.7,
    "ela": 47.5,
    "ela_state": 49.9,
    "attendance": 89.0,
    "attendance_state": 79.6
  },
  {
    "aun": "120481002",
    "schl": "3453",
    "name": "Clearview El Sch",
    "lat": 40.633743,
    "lon": -75.360965,
    "address": "2121 Abington Rd, Bethlehem, 18018",
    "math": 38.9,
    "math_state": 41.7,
    "ela": 35.0,
    "ela_state": 49.9,
    "attendance": 87.8,
    "attendance_state": 79.6
  },
  {
    "aun": "120481002",
    "schl": "3454",
    "name": "Marvine El Sch",
    "lat": 40.633743,
    "lon": -75.360965,
    "address": "1425 Livingston St, Bethlehem, 18017",
    "math": 25.0,
    "math_state": 41.7,
    "ela": 26.0,
    "ela_state": 49.9,
    "attendance": 84.9,
    "attendance_state": 79.6
  },
  {
    "aun": "120481002",
    "schl": "3455",
    "name": "Miller Heights El Sch",
    "lat": 40.633743,
    "lon": -75.360965,
    "address": "3605 Allen St, Bethlehem, 18020",
    "math": 58.0,
    "math_state": 41.7,
    "ela": 54.4,
    "ela_state": 49.9,
    "attendance": 92.9,
    "attendance_state": 79.6
  },
  {
    "aun": "120481002",
    "schl": "3456",
    "name": "Farmersville El Sch",
    "lat": 40.633743,
    "lon": -75.360965,
    "address": "7036 Wm Penn Highway, Easton, 18045",
    "math": 59.4,
    "math_state": 41.7,
    "ela": 59.4,
    "ela_state": 49.9,
    "attendance": 92.7,
    "attendance_state": 79.6
  },
  {
    "aun": "120481002",
    "schl": "3458",
    "name": "Freemansburg El Sch",
    "lat": 40.633743,
    "lon": -75.360965,
    "address": "501 Monroe St, Freemansburg, 18017",
    "math": 19.7,
    "math_state": 41.7,
    "ela": 22.2,
    "ela_state": 49.9,
    "attendance": 76.6,
    "attendance_state": 79.6
  },
  {
    "aun": "120481002",
    "schl": "3459",
    "name": "Hanover El Sch",
    "lat": 40.633743,
    "lon": -75.360965,
    "address": "3890 Jacksonville Rd, Bethlehem, 18017",
    "math": 80.4,
    "math_state": 41.7,
    "ela": 75.5,
    "ela_state": 49.9,
    "attendance": 94.2,
    "attendance_state": 79.6
  },
  {
    "aun": "120481002",
    "schl": "3462",
    "name": "Northeast MS",
    "lat": 40.633743,
    "lon": -75.360965,
    "address": "1170 Fernwood St, Bethlehem, 18018",
    "math": 14.8,
    "math_state": 41.7,
    "ela": 29.1,
    "ela_state": 49.9,
    "attendance": 79.1,
    "attendance_state": 79.6
  },
  {
    "aun": "120481002",
    "schl": "3463",
    "name": "Nitschmann MS",
    "lat": 40.633743,
    "lon": -75.360965,
    "address": "1002 W. Union Blvd, Bethlehem, 18018",
    "math": 33.7,
    "math_state": 41.7,
    "ela": 45.2,
    "ela_state": 49.9,
    "attendance": 90.2,
    "attendance_state": 79.6
  },
  {
    "aun": "120481002",
    "schl": "3464",
    "name": "Broughal MS",
    "lat": 40.633743,
    "lon": -75.360965,
    "address": "114 West Morton Street, Bethlehem, 18015",
    "math": 6.8,
    "math_state": 41.7,
    "ela": 17.6,
    "ela_state": 49.9,
    "attendance": 76.5,
    "attendance_state": 79.6
  },
  {
    "aun": "120481002",
    "schl": "3465",
    "name": "Liberty HS",
    "lat": 40.633743,
    "lon": -75.360965,
    "address": "1115 Linden St, Bethlehem, 18018",
    "math": 23.1,
    "math_state": 41.7,
    "ela": 43.3,
    "ela_state": 49.9,
    "attendance": 72.8,
    "attendance_state": 79.6
  },
  {
    "aun": "120481002",
    "schl": "4956",
    "name": "East Hills MS",
    "lat": 40.633743,
    "lon": -75.360965,
    "address": "2005 Chester Rd, Bethlehem, 18017",
    "math": 25.7,
    "math_state": 41.7,
    "ela": 43.0,
    "ela_state": 49.9,
    "attendance": 84.4,
    "attendance_state": 79.6
  },
  {
    "aun": "120481002",
    "schl": "4957",
    "name": "Freedom HS",
    "lat": 40.633743,
    "lon": -75.360965,
    "address": "3149 Chester Ave, Bethlehem, 18020",
    "math": 33.2,
    "math_state": 41.7,
    "ela": 50.8,
    "ela_state": 49.9,
    "attendance": 78.2,
    "attendance_state": 79.6
  },
  {
    "aun": "120481002",
    "schl": "5063",
    "name": "Asa Packer El Sch",
    "lat": 40.633743,
    "lon": -75.360965,
    "address": "1650 Kenwood Dr, Bethlehem, 18017",
    "math": 63.2,
    "math_state": 41.7,
    "ela": 50.3,
    "ela_state": 49.9,
    "attendance": 97.0,
    "attendance_state": 79.6
  },
  {
    "aun": "120481002",
    "schl": "6633",
    "name": "Thomas Jefferson El Sch",
    "lat": 40.633743,
    "lon": -75.360965,
    "address": "404 E North St, Bethlehem, 18018",
    "math": 26.2,
    "math_state": 41.7,
    "ela": 32.0,
    "ela_state": 49.9,
    "attendance": 87.4,
    "attendance_state": 79.6
  },
  {
    "aun": "120481002",
    "schl": "6634",
    "name": "William Penn El Sch",
    "lat": 40.633743,
    "lon": -75.360965,
    "address": "1002 Main St, Bethlehem, 18018",
    "math": 32.4,
    "math_state": 41.7,
    "ela": 29.6,
    "ela_state": 49.9,
    "attendance": 89.1,
    "attendance_state": 79.6
  },
  {
    "aun": "120481002",
    "schl": "6722",
    "name": "Donegan El Sch",
    "lat": 40.633743,
    "lon": -75.360965,
    "address": "1210 East 4th St, Bethlehem, 18015",
    "math": 20.3,
    "math_state": 41.7,
    "ela": 20.9,
    "ela_state": 49.9,
    "attendance": 69.3,
    "attendance_state": 79.6
  },
  {
    "aun": "120481002",
    "schl": "6723",
    "name": "Fountain Hill El Sch",
    "lat": 40.633743,
    "lon": -75.360965,
    "address": "1650 Valley Center Parkway, Bethlehem, 18017",
    "math": 12.1,
    "math_state": 41.7,
    "ela": 13.4,
    "ela_state": 49.9,
    "attendance": 73.5,
    "attendance_state": 79.6
  },
  {
    "aun": "120481107",
    "schl": "5286",
    "name": "Bethlehem AVTS",
    "lat": 40.662435,
    "lon": -75.335877,
    "address": "3300 Chester Avenue, Bethlehem, 18020",
    "math": null,
    "math_state": 41.7,
    "ela": null,
    "ela_state": 49.9,
    "attendance": 72.5,
    "attendance_state": 79.6
  },
  {
    "aun": "101631003",
    "schl": "4181",
    "name": "Bethlehem-Center JSHS",
    "lat": 40.022887,
    "lon": -80.030343,
    "address": "179 Crawford Rd, Fredericktown, 15333",
    "math": 24.0,
    "math_state": 41.7,
    "ela": 43.2,
    "ela_state": 49.9,
    "attendance": 58.7,
    "attendance_state": 79.6
  },
  {
    "aun": "101631003",
    "schl": "6975",
    "name": "Bethlehem-Center El Sch",
    "lat": 40.022887,
    "lon": -80.030343,
    "address": "194 Crawford Rd, Fredericktown, 15333",
    "math": 42.4,
    "math_state": 41.7,
    "ela": 44.7,
    "ela_state": 49.9,
    "attendance": 73.5,
    "attendance_state": 79.6
  },
  {
    "aun": "127041503",
    "schl": "642",
    "name": "Central El Sch",
    "lat": 40.756032,
    "lon": -80.320894,
    "address": "805 15th Street, Beaver Falls, 15010",
    "math": 36.4,
    "math_state": 41.7,
    "ela": 38.3,
    "ela_state": 49.9,
    "attendance": 77.8,
    "attendance_state": 79.6
  },
  {
    "aun": "127041503",
    "schl": "648",
    "name": "Beaver Falls MS",
    "lat": 40.756032,
    "lon": -80.320894,
    "address": "1601 8th Ave, Beaver Falls, 15010",
    "math": 23.9,
    "math_state": 41.7,
    "ela": 36.7,
    "ela_state": 49.9,
    "attendance": 81.1,
    "attendance_state": 79.6
  },
  {
    "aun": "127041503",
    "schl": "649",
    "name": "Beaver Falls Area SHS",
    "lat": 40.756032,
    "lon": -80.320894,
    "address": "1701 8th Ave, Beaver Falls, 15010",
    "math": 28.6,
    "math_state": 41.7,
    "ela": 50.0,
    "ela_state": 49.9,
    "attendance": 63.8,
    "attendance_state": 79.6
  },
  {
    "aun": "127041503",
    "schl": "650",
    "name": "Big Beaver El Sch",
    "lat": 40.756032,
    "lon": -80.320894,
    "address": "588 Friendship Drive, Darlington, 16115",
    "math": 47.9,
    "math_state": 41.7,
    "ela": 44.0,
    "ela_state": 49.9,
    "attendance": 77.6,
    "attendance_state": 79.6
  },
  {
    "aun": "115210503",
    "schl": "1676",
    "name": "Newville El Sch",
    "lat": 40.174257,
    "lon": -77.384344,
    "address": "100 Steelstown Rd, Newville, 17241",
    "math": 43.1,
    "math_state": 41.7,
    "ela": 43.6,
    "ela_state": 49.9,
    "attendance": 90.0,
    "attendance_state": 79.6
  },
  {
    "aun": "115210503",
    "schl": "1677",
    "name": "Big Spring HS",
    "lat": 40.174257,
    "lon": -77.384344,
    "address": "100 Mount Rock Rd, Newville, 17241",
    "math": 31.9,
    "math_state": 41.7,
    "ela": 58.7,
    "ela_state": 49.9,
    "attendance": 83.6,
    "attendance_state": 79.6
  },
  {
    "aun": "115210503",
    "schl": "6326",
    "name": "Big Spring MS",
    "lat": 40.174257,
    "lon": -77.384344,
    "address": "43 Mount Rock Rd, Newville, 17241",
    "math": 42.9,
    "math_state": 41.7,
    "ela": 61.2,
    "ela_state": 49.9,
    "attendance": 87.9,
    "attendance_state": 79.6
  },
  {
    "aun": "115210503",
    "schl": "7355",
    "name": "Oak Flat El Sch",
    "lat": 40.174257,
    "lon": -77.384344,
    "address": "334 Centerville Rd, Newville, 17241",
    "math": 68.8,
    "math_state": 41.7,
    "ela": 59.5,
    "ela_state": 49.9,
    "attendance": 91.3,
    "attendance_state": 79.6
  },
  {
    "aun": "115210503",
    "schl": "7951",
    "name": "Mount Rock Elem Sch",
    "lat": 40.174257,
    "lon": -77.384344,
    "address": "47 Mount Rock Rd, Newville, 17241",
    "math": 64.2,
    "math_state": 41.7,
    "ela": 67.5,
    "ela_state": 49.9,
    "attendance": 93.4,
    "attendance_state": 79.6
  },
  {
    "aun": "127041603",
    "schl": "6558",
    "name": "Highland MS",
    "lat": 40.764189,
    "lon": -80.3985,
    "address": "402 Shenango Rd, Beaver Falls, 15010",
    "math": 40.7,
    "math_state": 41.7,
    "ela": 41.8,
    "ela_state": 49.9,
    "attendance": 84.2,
    "attendance_state": 79.6
  },
  {
    "aun": "127041603",
    "schl": "6560",
    "name": "Patterson Primary Sch",
    "lat": 40.764189,
    "lon": -80.3985,
    "address": "701 Darlington Rd, Beaver Falls, 15010",
    "math": null,
    "math_state": 41.7,
    "ela": null,
    "ela_state": 49.9,
    "attendance": 88.1,
    "attendance_state": 79.6
  },
  {
    "aun": "127041603",
    "schl": "6707",
    "name": "Blackhawk HS",
    "lat": 40.764189,
    "lon": -80.3985,
    "address": "500 Blackhawk Rd, Beaver Falls, 15010",
    "math": 53.6,
    "math_state": 41.7,
    "ela": 62.4,
    "ela_state": 49.9,
    "attendance": 78.6,
    "attendance_state": 79.6
  },
  {
    "aun": "127041603",
    "schl": "8476",
    "name": "Blackhawk Intermediate Sch",
    "lat": 40.764189,
    "lon": -80.3985,
    "address": "635 Shenango Rd, Beaver Falls, 15010",
    "math": 67.5,
    "math_state": 41.7,
    "ela": 59.6,
    "ela_state": 49.9,
    "attendance": 83.4,
    "attendance_state": 79.6
  },
  {
    "aun": "108110603",
    "schl": "5135",
    "name": "Blacklick Valley JSHS",
    "lat": 40.477631,
    "lon": -78.832337,
    "address": "555 Birch St, Nanty Glo, 15943",
    "math": 37.9,
    "math_state": 41.7,
    "ela": 47.0,
    "ela_state": 49.9,
    "attendance": 73.4,
    "attendance_state": 79.6
  },
  {
    "aun": "108110603",
    "schl": "6828",
    "name": "Blacklick Valley El Ctr",
    "lat": 40.477631,
    "lon": -78.832337,
    "address": "1000 W Railroad St, Nanty Glo, 15943",
    "math": 44.9,
    "math_state": 41.7,
    "ela": 33.5,
    "ela_state": 49.9,
    "attendance": 79.0,
    "attendance_state": 79.6
  },
  {
    "aun": "116191203",
    "schl": "1606",
    "name": "Memorial El Sch",
    "lat": 41.004501,
    "lon": -76.443675,
    "address": "500 Market St, Bloomsburg, 17815",
    "math": 57.8,
    "math_state": 41.7,
    "ela": 48.1,
    "ela_state": 49.9,
    "attendance": 84.7,
    "attendance_state": 79.6
  },
  {
    "aun": "116191203",
    "schl": "1608",
    "name": "W W Evans Memorial El Sch",
    "lat": 41.004501,
    "lon": -76.443675,
    "address": "59 Perry Ave, Bloomsburg, 17815",
    "math": 53.8,
    "math_state": 41.7,
    "ela": 51.5,
    "ela_state": 49.9,
    "attendance": 95.0,
    "attendance_state": 79.6
  },
  {
    "aun": "116191203",
    "schl": "1610",
    "name": "Beaver-Main El Sch",
    "lat": 41.004501,
    "lon": -76.443675,
    "address": "245 Beaver Valley Road, Bloomsburg, 17815",
    "math": 79.6,
    "math_state": 41.7,
    "ela": 73.5,
    "ela_state": 49.9,
    "attendance": 93.4,
    "attendance_state": 79.6
  },
  {
    "aun": "116191203",
    "schl": "1611",
    "name": "Bloomsburg Area MS",
    "lat": 41.004501,
    "lon": -76.443675,
    "address": "1100 Railroad St, Bloomsburg, 17815",
    "math": 38.7,
    "math_state": 41.7,
    "ela": 53.0,
    "ela_state": 49.9,
    "attendance": 86.8,
    "attendance_state": 79.6
  },
  {
    "aun": "116191203",
    "schl": "1612",
    "name": "Bloomsburg Area HS",
    "lat": 41.004501,
    "lon": -76.443675,
    "address": "1200 Railroad St, Bloomsburg, 17815",
    "math": 57.5,
    "math_state": 41.7,
    "ela": 72.4,
    "ela_state": 49.9,
    "attendance": 75.5,
    "attendance_state": 79.6
  },
  {
    "aun": "129540803",
    "schl": "3891",
    "name": "Blue Mountain HS",
    "lat": 40.655398,
    "lon": -76.085907,
    "address": "1076 W Market St, Schuylkill Haven, 17972",
    "math": 39.5,
    "math_state": 41.7,
    "ela": 71.9,
    "ela_state": 49.9,
    "attendance": 94.2,
    "attendance_state": 79.6
  },
  {
    "aun": "129540803",
    "schl": "4659",
    "name": "Blue Mountain El East Sch",
    "lat": 40.655398,
    "lon": -76.085907,
    "address": "675 Red Dale Rd, Orwigsburg, 17961",
    "math": 55.6,
    "math_state": 41.7,
    "ela": 50.3,
    "ela_state": 49.9,
    "attendance": 87.8,
    "attendance_state": 79.6
  },
  {
    "aun": "129540803",
    "schl": "5263",
    "name": "Blue Mountain MS",
    "lat": 40.655398,
    "lon": -76.085907,
    "address": "685 Red Dale Rd, Orwigsburg, 17961",
    "math": 30.2,
    "math_state": 41.7,
    "ela": 53.1,
    "ela_state": 49.9,
    "attendance": 84.8,
    "attendance_state": 79.6
  },
  {
    "aun": "129540803",
    "schl": "8505",
    "name": "Blue Mountain El West Sch",
    "lat": 40.655398,
    "lon": -76.085907,
    "address": "20 North Front St, Friedensburg, 17972",
    "math": 63.2,
    "math_state": 41.7,
    "ela": 54.1,
    "ela_state": 49.9,
    "attendance": 92.2,
    "attendance_state": 79.6
  },
  {
    "aun": "119581003",
    "schl": "4034",
    "name": "Blue Ridge HS",
    "lat": 41.899953,
    "lon": -75.737924,
    "address": "5150 School Road, New Milford, 18834",
    "math": 50.0,
    "math_state": 41.7,
    "ela": 71.6,
    "ela_state": 49.9,
    "attendance": 73.3,
    "attendance_state": 79.6
  },
  {
    "aun": "119581003",
    "schl": "6891",
    "name": "Blue Ridge El Sch",
    "lat": 41.899953,
    "lon": -75.737924,
    "address": "5150 School Road, New Milford, 18834",
    "math": 50.0,
    "math_state": 41.7,
    "ela": 46.4,
    "ela_state": 49.9,
    "attendance": 84.0,
    "attendance_state": 79.6
  },
  {
    "aun": "119581003",
    "schl": "7400",
    "name": "Blue Ridge MS",
    "lat": 41.899953,
    "lon": -75.737924,
    "address": "5150 School Road, New Milford, 18834",
    "math": 21.9,
    "math_state": 41.7,
    "ela": 53.3,
    "ela_state": 49.9,
    "attendance": 84.4,
    "attendance_state": 79.6
  },
  {
    "aun": "114060753",
    "schl": "754",
    "name": "Gilbertsville El Sch",
    "lat": 40.338166,
    "lon": -75.626156,
    "address": "36 Congo Rd, Gilbertsville, 19525",
    "math": 53.4,
    "math_state": 41.7,
    "ela": 49.2,
    "ela_state": 49.9,
    "attendance": 91.9,
    "attendance_state": 79.6
  },
  {
    "aun": "114060753",
    "schl": "755",
    "name": "New Hanover-Upper Frederick El",
    "lat": 40.338166,
    "lon": -75.626156,
    "address": "2547 Big Rd, Frederick, 19435",
    "math": 49.7,
    "math_state": 41.7,
    "ela": 52.0,
    "ela_state": 49.9,
    "attendance": 95.1,
    "attendance_state": 79.6
  },
  {
    "aun": "114060753",
    "schl": "763",
    "name": "Earl El Sch",
    "lat": 40.338166,
    "lon": -75.626156,
    "address": "22 Schoolhouse Rd, Boyertown, 19512",
    "math": 63.0,
    "math_state": 41.7,
    "ela": 56.2,
    "ela_state": 49.9,
    "attendance": 90.5,
    "attendance_state": 79.6
  },
  {
    "aun": "114060753",
    "schl": "6305",
    "name": "Boyertown Area MS-West",
    "lat": 40.338166,
    "lon": -75.626156,
    "address": "380 S Madison St, Boyertown, 19512",
    "math": 46.4,
    "math_state": 41.7,
    "ela": 55.9,
    "ela_state": 49.9,
    "attendance": 90.6,
    "attendance_state": 79.6
  },
  {
    "aun": "114060753",
    "schl": "6307",
    "name": "Boyertown El Sch",
    "lat": 40.338166,
    "lon": -75.626156,
    "address": "641 E Second St, Boyertown, 19512",
    "math": 56.1,
    "math_state": 41.7,
    "ela": 51.9,
    "ela_state": 49.9,
    "attendance": 89.4,
    "attendance_state": 79.6
  },
  {
    "aun": "114060753",
    "schl": "6804",
    "name": "Boyertown Area MS-East",
    "lat": 40.338166,
    "lon": -75.626156,
    "address": "2020 Big Rd, Gilbertsville, 19525",
    "math": 57.2,
    "math_state": 41.7,
    "ela": 61.6,
    "ela_state": 49.9,
    "attendance": 92.6,
    "attendance_state": 79.6
  },
  {
    "aun": "114060753",
    "schl": "762",
    "name": "Colebrookdale El Sch",
    "lat": 40.338166,
    "lon": -75.626156,
    "address": "1001 Montgomery Avenue, Boyertown, 19512",
    "math": 44.4,
    "math_state": 41.7,
    "ela": 39.8,
    "ela_state": 49.9,
    "attendance": 88.4,
    "attendance_state": 79.6
  },
  {
    "aun": "114060753",
    "schl": "766",
    "name": "Washington El Sch",
    "lat": 40.338166,
    "lon": -75.626156,
    "address": "1406 Route 100, Barto, 19504",
    "math": 61.0,
    "math_state": 41.7,
    "ela": 49.3,
    "ela_state": 49.9,
    "attendance": 91.4,
    "attendance_state": 79.6
  },
  {
    "aun": "114060753",
    "schl": "6306",
    "name": "Boyertown Area SHS",
    "lat": 40.338166,
    "lon": -75.626156,
    "address": "120 N Monroe St, Boyertown, 19512",
    "math": 60.2,
    "math_state": 41.7,
    "ela": 67.4,
    "ela_state": 49.9,
    "attendance": 87.2,
    "attendance_state": 79.6
  },
  {
    "aun": "185515523",
    "schl": "7981",
    "name": "Boys Latin of Philadelphia CS",
    "lat": 39.916656,
    "lon": -75.245956,
    "address": "5501 Cedar Avenue, Philadelphia, 19143",
    "math": 10.2,
    "math_state": 41.7,
    "ela": 27.8,
    "ela_state": 49.9,
    "attendance": 84.8,
    "attendance_state": 79.6
  },
  {
    "aun": "109420803",
    "schl": "3092",
    "name": "Floyd C Fretz MS",
    "lat": 41.967254,
    "lon": -78.619748,
    "address": "140 Lorana Ave, Bradford, 16701",
    "math": 36.7,
    "math_state": 41.7,
    "ela": 53.9,
    "ela_state": 49.9,
    "attendance": 73.4,
    "attendance_state": 79.6
  },
  {
    "aun": "109420803",
    "schl": "4691",
    "name": "Bradford Area HS",
    "lat": 41.967254,
    "lon": -78.619748,
    "address": "81 Interstate Pkwy, Bradford, 16701",
    "math": 64.0,
    "math_state": 41.7,
    "ela": 70.4,
    "ela_state": 49.9,
    "attendance": 63.6,
    "attendance_state": 79.6
  },
  {
    "aun": "109420803",
    "schl": "7037",
    "name": "George Blaisdell El Sch",
    "lat": 41.967254,
    "lon": -78.619748,
    "address": "265 Constitution Ave, Bradford, 16701",
    "math": null,
    "math_state": 41.7,
    "ela": null,
    "ela_state": 49.9,
    "attendance": 83.3,
    "attendance_state": 79.6
  },
  {
    "aun": "109420803",
    "schl": "7281",
    "name": "School Street El Sch",
    "lat": 41.967254,
    "lon": -78.619748,
    "address": "76 School St, Bradford, 16701",
    "math": 47.6,
    "math_state": 41.7,
    "ela": 47.2,
    "ela_state": 49.9,
    "attendance": 82.7,
    "attendance_state": 79.6
  },
  {
    "aun": "114060853",
    "schl": "768",
    "name": "Brandywine Heights El Sch",
    "lat": 40.499518,
    "lon": -75.703046,
    "address": "445 Barkley St., Topton, 19562",
    "math": 62.9,
    "math_state": 41.7,
    "ela": 40.4,
    "ela_state": 49.9,
    "attendance": 89.9,
    "attendance_state": 79.6
  },
  {
    "aun": "114060853",
    "schl": "6308",
    "name": "Brandywine Heights HS",
    "lat": 40.499518,
    "lon": -75.703046,
    "address": "103 Old Topton Rd, Mertztown, 19539",
    "math": 36.6,
    "math_state": 41.7,
    "ela": 53.7,
    "ela_state": 49.9,
    "attendance": 88.9,
    "attendance_state": 79.6
  },
  {
    "aun": "114060853",
    "schl": "8383",
    "name": "Brandywine Heights Intrmd/MS",
    "lat": 40.499518,
    "lon": -75.703046,
    "address": "200 W Weis St, Topton, 19562",
    "math": 46.9,
    "math_state": 41.7,
    "ela": 55.2,
    "ela_state": 49.9,
    "attendance": 94.5,
    "attendance_state": 79.6
  },
  {
    "aun": "103021453",
    "schl": "68",
    "name": "Moore Sch",
    "lat": 40.374141,
    "lon": -79.975484,
    "address": "3809 Dalewood St, Pittsburgh, 15227",
    "math": 50.0,
    "math_state": 41.7,
    "ela": 40.4,
    "ela_state": 49.9,
    "attendance": 84.9,
    "attendance_state": 79.6
  },
  {
    "aun": "103021453",
    "schl": "69",
    "name": "Elroy Avenue El Sch",
    "lat": 40.374141,
    "lon": -79.975484,
    "address": "3129 Elroy Ave, Pittsburgh, 15227",
    "math": 40.7,
    "math_state": 41.7,
    "ela": 46.3,
    "ela_state": 49.9,
    "attendance": 70.8,
    "attendance_state": 79.6
  },
  {
    "aun": "103021453",
    "schl": "70",
    "name": "Brentwood SHS",
    "lat": 40.374141,
    "lon": -79.975484,
    "address": "3601 Brownsville Rd, Pittsburgh, 15227",
    "math": 40.0,
    "math_state": 41.7,
    "ela": 58.6,
    "ela_state": 49.9,
    "attendance": 74.2,
    "attendance_state": 79.6
  },
  {
    "aun": "103021453",
    "schl": "7342",
    "name": "Brentwood MS",
    "lat": 40.374141,
    "lon": -79.975484,
    "address": "3601 Brownsville Rd, Pittsburgh, 15227",
    "math": 25.0,
    "math_state": 41.7,
    "ela": 46.6,
    "ela_state": 49.9,
    "attendance": 73.2,
    "attendance_state": 79.6
  },
  {
    "aun": "122091303",
    "schl": "1014",
    "name": "Bristol HS",
    "lat": 40.106951,
    "lon": -74.842664,
    "address": "1801 Wilson Avenue, Bristol, 19007",
    "math": 33.8,
    "math_state": 41.7,
    "ela": 59.7,
    "ela_state": 49.9,
    "attendance": 65.7,
    "attendance_state": 79.6
  },
  {
    "aun": "122091303",
    "schl": "7743",
    "name": "Bristol MS",
    "lat": 40.106951,
    "lon": -74.842664,
    "address": "1801 Wilson Ave, Bristol, 19007",
    "math": 16.2,
    "math_state": 41.7,
    "ela": 28.9,
    "ela_state": 49.9,
    "attendance": 71.4,
    "attendance_state": 79.6
  },
  {
    "aun": "122091303",
    "schl": "1013",
    "name": "Warren Snyder-John Girotti El Sch",
    "lat": 40.106951,
    "lon": -74.842664,
    "address": "450 Beaver St, Bristol, 19007",
    "math": 50.0,
    "math_state": 41.7,
    "ela": 42.2,
    "ela_state": 49.9,
    "attendance": 83.4,
    "attendance_state": 79.6
  },
  {
    "aun": "122091352",
    "schl": "1027",
    "name": "Benjamin Franklin MS",
    "lat": 40.136452,
    "lon": -74.865316,
    "address": "6401 Mill Creek Rd, Levittown, 19057",
    "math": 12.0,
    "math_state": 41.7,
    "ela": 35.5,
    "ela_state": 49.9,
    "attendance": 80.6,
    "attendance_state": 79.6
  },
  {
    "aun": "122091352",
    "schl": "8367",
    "name": "Mill Creek El Sch",
    "lat": 40.136452,
    "lon": -74.865316,
    "address": "6501 Mill Creek Rd, Levittown, 19057",
    "math": 27.1,
    "math_state": 41.7,
    "ela": 32.7,
    "ela_state": 49.9,
    "attendance": 90.6,
    "attendance_state": 79.6
  },
  {
    "aun": "122091352",
    "schl": "8368",
    "name": "Brookwood El Sch",
    "lat": 40.136452,
    "lon": -74.865316,
    "address": "2200 Haines Rd, Levittown, 19057",
    "math": 26.9,
    "math_state": 41.7,
    "ela": 27.1,
    "ela_state": 49.9,
    "attendance": 86.5,
    "attendance_state": 79.6
  },
  {
    "aun": "122091352",
    "schl": "8369",
    "name": "Keystone El Sch",
    "lat": 40.136452,
    "lon": -74.865316,
    "address": "1800 Keystone St, Croydon, 19021",
    "math": 39.2,
    "math_state": 41.7,
    "ela": 33.0,
    "ela_state": 49.9,
    "attendance": 88.9,
    "attendance_state": 79.6
  },
  {
    "aun": "122091352",
    "schl": "8407",
    "name": "Neil A Armstrong MS",
    "lat": 40.136452,
    "lon": -74.865316,
    "address": "475 Wistar Rd, Fairless Hills, 19030",
    "math": 15.4,
    "math_state": 41.7,
    "ela": 33.2,
    "ela_state": 49.9,
    "attendance": 80.6,
    "attendance_state": 79.6
  },
  {
    "aun": "122091352",
    "schl": "1029",
    "name": "Truman SHS",
    "lat": 40.136452,
    "lon": -74.865316,
    "address": "3001Green Lane, Levittown, 19057",
    "math": 18.7,
    "math_state": 41.7,
    "ela": 38.8,
    "ela_state": 49.9,
    "attendance": 71.8,
    "attendance_state": 79.6
  },
  {
    "aun": "106330703",
    "schl": "2362",
    "name": "Brockway Area JSHS",
    "lat": 41.252009,
    "lon": -78.808583,
    "address": "100 Alexander St, Brockway, 15824",
    "math": 45.9,
    "math_state": 41.7,
    "ela": 64.9,
    "ela_state": 49.9,
    "attendance": 81.9,
    "attendance_state": 79.6
  },
  {
    "aun": "106330703",
    "schl": "5148",
    "name": "Brockway Area Elementary Sch",
    "lat": 41.252009,
    "lon": -78.808583,
    "address": "40 North St, Brockway, 15824",
    "math": 64.9,
    "math_state": 41.7,
    "ela": 60.9,
    "ela_state": 49.9,
    "attendance": 92.7,
    "attendance_state": 79.6
  },
  {
    "aun": "106330803",
    "schl": "2368",
    "name": "Pinecreek El Sch",
    "lat": 41.16475,
    "lon": -79.081125,
    "address": "Pinecreek Elementary School, Brookville, 15825",
    "math": null,
    "math_state": 41.7,
    "ela": null,
    "ela_state": 49.9,
    "attendance": 88.1,
    "attendance_state": 79.6
  },
  {
    "aun": "106330803",
    "schl": "5231",
    "name": "Hickory Grove El Sch",
    "lat": 41.16475,
    "lon": -79.081125,
    "address": "Hickory Grove Elementary, Brookville, 15825",
    "math": 55.1,
    "math_state": 41.7,
    "ela": 60.1,
    "ela_state": 49.9,
    "attendance": 90.8,
    "attendance_state": 79.6
  },
  {
    "aun": "106330803",
    "schl": "6162",
    "name": "Brookville JSHS",
    "lat": 41.16475,
    "lon": -79.081125,
    "address": "Brookville Jr./Sr. High School, Brookville, 15825",
    "math": 39.7,
    "math_state": 41.7,
    "ela": 62.9,
    "ela_state": 49.9,
    "attendance": 83.4,
    "attendance_state": 79.6
  },
  {
    "aun": "106330803",
    "schl": "6163",
    "name": "Northside El Sch",
    "lat": 41.16475,
    "lon": -79.081125,
    "address": "Northside Elementary School, Brookville, 15825",
    "math": null,
    "math_state": 41.7,
    "ela": null,
    "ela_state": 49.9,
    "attendance": 82.8,
    "attendance_state": 79.6
  },
  {
    "aun": "101260803",
    "schl": "2154",
    "name": "Brownsville Area MS",
    "lat": 40.009375,
    "lon": -79.900331,
    "address": "Three Falcon Drive, Brownsville, 15417",
    "math": 16.8,
    "math_state": 41.7,
    "ela": 23.2,
    "ela_state": 49.9,
    "attendance": 64.6,
    "attendance_state": 79.6
  },
  {
    "aun": "101260803",
    "schl": "4818",
    "name": "Brownsville Area HS",
    "lat": 40.009375,
    "lon": -79.900331,
    "address": "One Falcon Drive, Brownsville, 15417",
    "math": 17.6,
    "math_state": 41.7,
    "ela": 42.9,
    "ela_state": 49.9,
    "attendance": 56.5,
    "attendance_state": 79.6
  },
  {
    "aun": "101260803",
    "schl": "8384",
    "name": "Brownsville Area El Sch",
    "lat": 40.009375,
    "lon": -79.900331,
    "address": "7 Falcon Drive, Brownsville, 15417",
    "math": 15.1,
    "math_state": 41.7,
    "ela": 22.9,
    "ela_state": 49.9,
    "attendance": 65.6,
    "attendance_state": 79.6
  },
  {
    "aun": "122093460",
    "schl": "7670",
    "name": "Bucks County Montessori CS",
    "lat": 40.182366,
    "lon": -74.812139,
    "address": "219 Tyburn Rd, Fairless Hills, 19030",
    "math": 77.7,
    "math_state": 41.7,
    "ela": 84.5,
    "ela_state": 49.9,
    "attendance": 91.1,
    "attendance_state": 79.6
  },
  {
    "aun": "122091457",
    "schl": "1030",
    "name": "Bucks County Technical High School",
    "lat": 40.16204,
    "lon": -74.852569,
    "address": "610 Wistar Road, Fairless Hills, 19030",
    "math": 30.7,
    "math_state": 41.7,
    "ela": 46.9,
    "ela_state": 49.9,
    "attendance": 85.5,
    "attendance_state": 79.6
  },
  {
    "aun": "101631203",
    "schl": "4195",
    "name": "Burgettstown MS/HS",
    "lat": 40.397887,
    "lon": -80.388844,
    "address": "104 Bavington Rd, Burgettstown, 15021",
    "math": 31.3,
    "math_state": 41.7,
    "ela": 52.3,
    "ela_state": 49.9,
    "attendance": 78.5,
    "attendance_state": 79.6
  },
  {
    "aun": "101631203",
    "schl": "7477",
    "name": "Burgettstown El Ctr",
    "lat": 40.397887,
    "lon": -80.388844,
    "address": "100 Bavington Rd, Burgettstown, 15021",
    "math": 55.1,
    "math_state": 41.7,
    "ela": 48.1,
    "ela_state": 49.9,
    "attendance": 82.0,
    "attendance_state": 79.6
  },
  {
    "aun": "107650703",
    "schl": "4333",
    "name": "Bon Air El Sch",
    "lat": 40.573016,
    "lon": -79.702614,
    "address": "3260 Leechburg Rd, Lower Burrell, 15068",
    "math": 71.5,
    "math_state": 41.7,
    "ela": 53.1,
    "ela_state": 49.9,
    "attendance": 86.0,
    "attendance_state": 79.6
  },
  {
    "aun": "107650703",
    "schl": "4339",
    "name": "Charles A Huston MS",
    "lat": 40.573016,
    "lon": -79.702614,
    "address": "1020 Puckety Church Rd, Lower Burrell, 15068",
    "math": 24.3,
    "math_state": 41.7,
    "ela": 44.4,
    "ela_state": 49.9,
    "attendance": 78.6,
    "attendance_state": 79.6
  },
  {
    "aun": "107650703",
    "schl": "4340",
    "name": "Burrell HS",
    "lat": 40.573016,
    "lon": -79.702614,
    "address": "1021 Puckety Church Rd, Lower Burrell, 15068",
    "math": 42.1,
    "math_state": 41.7,
    "ela": 53.9,
    "ela_state": 49.9,
    "attendance": 74.6,
    "attendance_state": 79.6
  },
  {
    "aun": "104101252",
    "schl": "1134",
    "name": "Emily Brittain El Sch",
    "lat": 40.866556,
    "lon": -79.920397,
    "address": "338 North Washington Street, Butler, 16001",
    "math": 42.7,
    "math_state": 41.7,
    "ela": 41.9,
    "ela_state": 49.9,
    "attendance": 77.6,
    "attendance_state": 79.6
  },
  {
    "aun": "104101252",
    "schl": "1138",
    "name": "Mcquistion El Sch",
    "lat": 40.866556,
    "lon": -79.920397,
    "address": "210 Mechling Drive, Butler, 16001",
    "math": 59.8,
    "math_state": 41.7,
    "ela": 55.0,
    "ela_state": 49.9,
    "attendance": 77.1,
    "attendance_state": 79.6
  },
  {
    "aun": "104101252",
    "schl": "1142",
    "name": "Northwest El Sch",
    "lat": 40.866556,
    "lon": -79.920397,
    "address": "124 Staley Avenue, Butler, 16001",
    "math": 68.4,
    "math_state": 41.7,
    "ela": 71.6,
    "ela_state": 49.9,
    "attendance": 80.0,
    "attendance_state": 79.6
  },
  {
    "aun": "104101252",
    "schl": "1148",
    "name": "Center Twp Sch",
    "lat": 40.866556,
    "lon": -79.920397,
    "address": "950 Mercer Road, Butler, 16001",
    "math": 61.8,
    "math_state": 41.7,
    "ela": 65.7,
    "ela_state": 49.9,
    "attendance": 83.7,
    "attendance_state": 79.6
  },
  {
    "aun": "104101252",
    "schl": "1150",
    "name": "Connoquenessing El Sch",
    "lat": 40.866556,
    "lon": -79.920397,
    "address": "102 Connoquenessing School Road, Renfrew, 16053",
    "math": 67.1,
    "math_state": 41.7,
    "ela": 66.4,
    "ela_state": 49.9,
    "attendance": 85.4,
    "attendance_state": 79.6
  },
  {
    "aun": "104101252",
    "schl": "1184",
    "name": "Summit El Sch",
    "lat": 40.866556,
    "lon": -79.920397,
    "address": "351 Brinker Road, Butler, 16002",
    "math": 49.6,
    "math_state": 41.7,
    "ela": 38.8,
    "ela_state": 49.9,
    "attendance": 87.0,
    "attendance_state": 79.6
  },
  {
    "aun": "104101252",
    "schl": "6690",
    "name": "Butler Area IHS",
    "lat": 40.866556,
    "lon": -79.920397,
    "address": "551 Fairground Hill Road, Butler, 16001",
    "math": 38.8,
    "math_state": 41.7,
    "ela": 60.0,
    "ela_state": 49.9,
    "attendance": 72.7,
    "attendance_state": 79.6
  },
  {
    "aun": "104101252",
    "schl": "8344",
    "name": "Butler Area SHS",
    "lat": 40.866556,
    "lon": -79.920397,
    "address": "120 Campus Lane, Butler, 16001",
    "math": 42.2,
    "math_state": 41.7,
    "ela": 54.9,
    "ela_state": 49.9,
    "attendance": 71.8,
    "attendance_state": 79.6
  },
  {
    "aun": "104101252",
    "schl": "8494",
    "name": "Broad Street El Sch",
    "lat": 40.866556,
    "lon": -79.920397,
    "address": "200 Broad St, Butler, 16001",
    "math": 34.0,
    "math_state": 41.7,
    "ela": 39.8,
    "ela_state": 49.9,
    "attendance": 71.0,
    "attendance_state": 79.6
  },
  {
    "aun": "104101307",
    "schl": "6999",
    "name": "Butler County AVTS",
    "lat": 40.865104,
    "lon": -79.917356,
    "address": "210 Campus Lane, Butler, 16001",
    "math": null,
    "math_state": 41.7,
    "ela": null,
    "ela_state": 49.9,
    "attendance": 62.8,
    "attendance_state": 79.6
  },
  {
    "aun": "101636920",
    "schl": "8497",
    "name": "California Academy of Learning CS",
    "lat": 40.043479,
    "lon": -79.924365,
    "address": "408 Trojan Way, Coal Center, 15423",
    "math": 6.3,
    "math_state": 41.7,
    "ela": 28.4,
    "ela_state": 49.9,
    "attendance": 92.8,
    "attendance_state": 79.6
  },
  {
    "aun": "101631503",
    "schl": "4203",
    "name": "California Area SHS",
    "lat": 40.043301,
    "lon": -79.924311,
    "address": "11 Trojan Way, Coal Center, 15423",
    "math": 25.8,
    "math_state": 41.7,
    "ela": 50.0,
    "ela_state": 49.9,
    "attendance": 63.9,
    "attendance_state": 79.6
  },
  {
    "aun": "101631503",
    "schl": "6939",
    "name": "California Area MS",
    "lat": 40.043301,
    "lon": -79.924311,
    "address": "11 Trojan Way, Coal Center, 15423",
    "math": 23.1,
    "math_state": 41.7,
    "ela": 56.5,
    "ela_state": 49.9,
    "attendance": 57.2,
    "attendance_state": 79.6
  },
  {
    "aun": "101631503",
    "schl": "7221",
    "name": "California Area El Sch",
    "lat": 40.043301,
    "lon": -79.924311,
    "address": "40 Trojan Way, Coal Center, 15423",
    "math": 15.3,
    "math_state": 41.7,
    "ela": 34.9,
    "ela_state": 49.9,
    "attendance": 69.0,
    "attendance_state": 79.6
  },
  {
    "aun": "108111203",
    "schl": "1199",
    "name": "Cambria Heights MS",
    "lat": 40.628152,
    "lon": -78.571214,
    "address": "414 Glendale Lake Rd, Patton, 16668",
    "math": 36.5,
    "math_state": 41.7,
    "ela": 60.4,
    "ela_state": 49.9,
    "attendance": 80.7,
    "attendance_state": 79.6
  },
  {
    "aun": "108111203",
    "schl": "5212",
    "name": "Cambria Heights SHS",
    "lat": 40.628152,
    "lon": -78.571214,
    "address": "426 Glendale Lake Rd, Patton, 16668",
    "math": 49.5,
    "math_state": 41.7,
    "ela": 71.7,
    "ela_state": 49.9,
    "attendance": 75.5,
    "attendance_state": 79.6
  },
  {
    "aun": "108111203",
    "schl": "7347",
    "name": "Cambria Heights El Sch",
    "lat": 40.628152,
    "lon": -78.571214,
    "address": "138 East Campbell St, Carrolltown, 15722",
    "math": 58.2,
    "math_state": 41.7,
    "ela": 52.6,
    "ela_state": 49.9,
    "attendance": 81.1,
    "attendance_state": 79.6
  },
  {
    "aun": "109122703",
    "schl": "1298",
    "name": "Woodland El Sch",
    "lat": 41.513473,
    "lon": -78.245989,
    "address": "601 Woodland Ave, Emporium, 15834",
    "math": 51.3,
    "math_state": 41.7,
    "ela": 45.6,
    "ela_state": 49.9,
    "attendance": 88.7,
    "attendance_state": 79.6
  },
  {
    "aun": "109122703",
    "schl": "1299",
    "name": "Cameron County JSHS",
    "lat": 41.513473,
    "lon": -78.245989,
    "address": "601 Woodland Ave, Emporium, 15834",
    "math": 34.4,
    "math_state": 41.7,
    "ela": 60.3,
    "ela_state": 49.9,
    "attendance": 77.9,
    "attendance_state": 79.6
  },
  {
    "aun": "115211003",
    "schl": "1678",
    "name": "Eisenhower El Sch",
    "lat": 40.235084,
    "lon": -76.924548,
    "address": "340 N 21st St, Camp Hill, 17011",
    "math": 73.2,
    "math_state": 41.7,
    "ela": 67.6,
    "ela_state": 49.9,
    "attendance": 92.9,
    "attendance_state": 79.6
  },
  {
    "aun": "115211003",
    "schl": "1680",
    "name": "Hoover El Sch",
    "lat": 40.235084,
    "lon": -76.924548,
    "address": "420 S 24th St, Camp Hill, 17011",
    "math": null,
    "math_state": 41.7,
    "ela": null,
    "ela_state": 49.9,
    "attendance": 90.9,
    "attendance_state": 79.6
  },